[
  {
    "name": "São Paulo",
    "asciiName": "Sao Paulo",
    "lat": -23.5475,
    "lng": -46.6361,
    "population": 12400232,
    "country": "BR"
  },
  {
    "name": "Mexico City",
    "asciiName": "Mexico City",
    "lat": 19.4285,
    "lng": -99.1277,
    "population": 12294193,
    "country": "MX"
  },
  {
    "name": "Tokyo",
    "asciiName": "Tokyo",
    "lat": 35.6895,
    "lng": 139.6917,
    "population": 9733276,
    "country": "JP"
  },
  {
    "name": "London",
    "asciiName": "London",
    "lat": 51.5085,
    "lng": -0.1257,
    "population": 8961989,
    "country": "GB"
  },
  {
    "name": "New York City",
    "asciiName": "New York City",
    "lat": 40.7143,
    "lng": -74.006,
    "population": 8804190,
    "country": "US"
  },
  {
    "name": "Lima",
    "asciiName": "Lima",
    "lat": -12.0432,
    "lng": -77.0282,
    "population": 7737002,
    "country": "PE"
  },
  {
    "name": "Bogotá",
    "asciiName": "Bogota",
    "lat": 4.6097,
    "lng": -74.0817,
    "population": 7674366,
    "country": "CO"
  },
  {
    "name": "Rio de Janeiro",
    "asciiName": "Rio de Janeiro",
    "lat": -22.9064,
    "lng": -43.1822,
    "population": 6747815,
    "country": "BR"
  },
  {
    "name": "Sydney",
    "asciiName": "Sydney",
    "lat": -33.8678,
    "lng": 151.2073,
    "population": 5638830,
    "country": "AU"
  },
  {
    "name": "Brisbane",
    "asciiName": "Brisbane",
    "lat": -27.4679,
    "lng": 153.0281,
    "population": 5638830,
    "country": "AU"
  },
  {
    "name": "Melbourne",
    "asciiName": "Melbourne",
    "lat": -37.814,
    "lng": 144.9633,
    "population": 5435590,
    "country": "AU"
  },
  {
    "name": "Santiago",
    "asciiName": "Santiago",
    "lat": -33.4569,
    "lng": -70.6483,
    "population": 4837295,
    "country": "CL"
  },
  {
    "name": "Los Angeles",
    "asciiName": "Los Angeles",
    "lat": 34.0522,
    "lng": -118.2437,
    "population": 3820914,
    "country": "US"
  },
  {
    "name": "Yokohama",
    "asciiName": "Yokohama",
    "lat": 35.4333,
    "lng": 139.65,
    "population": 3777491,
    "country": "JP"
  },
  {
    "name": "Berlin",
    "asciiName": "Berlin",
    "lat": 52.5244,
    "lng": 13.4105,
    "population": 3426354,
    "country": "DE"
  },
  {
    "name": "Madrid",
    "asciiName": "Madrid",
    "lat": 40.4165,
    "lng": -3.7026,
    "population": 3255944,
    "country": "ES"
  },
  {
    "name": "Buenos Aires",
    "asciiName": "Buenos Aires",
    "lat": -34.6131,
    "lng": -58.3772,
    "population": 2891082,
    "country": "AR"
  },
  {
    "name": "Toronto",
    "asciiName": "Toronto",
    "lat": 43.7064,
    "lng": -79.3986,
    "population": 2794356,
    "country": "CA"
  },
  {
    "name": "Luanda",
    "asciiName": "Luanda",
    "lat": -8.8368,
    "lng": 13.2343,
    "population": 2776168,
    "country": "AO"
  },
  {
    "name": "Osaka",
    "asciiName": "Osaka",
    "lat": 34.6938,
    "lng": 135.5011,
    "population": 2753862,
    "country": "JP"
  },
  {
    "name": "Brooklyn",
    "asciiName": "Brooklyn",
    "lat": 40.6501,
    "lng": -73.9496,
    "population": 2736074,
    "country": "US"
  },
  {
    "name": "Belo Horizonte",
    "asciiName": "Belo Horizonte",
    "lat": -19.9208,
    "lng": -43.9378,
    "population": 2721564,
    "country": "BR"
  },
  {
    "name": "Salvador",
    "asciiName": "Salvador",
    "lat": -12.9756,
    "lng": -38.491,
    "population": 2711840,
    "country": "BR"
  },
  {
    "name": "Chicago",
    "asciiName": "Chicago",
    "lat": 41.85,
    "lng": -87.65,
    "population": 2664452,
    "country": "US"
  },
  {
    "name": "Fortaleza",
    "asciiName": "Fortaleza",
    "lat": -3.7172,
    "lng": -38.5431,
    "population": 2400000,
    "country": "BR"
  },
  {
    "name": "Cali",
    "asciiName": "Cali",
    "lat": 3.4305,
    "lng": -76.5199,
    "population": 2392877,
    "country": "CO"
  },
  {
    "name": "Perth",
    "asciiName": "Perth",
    "lat": -31.9522,
    "lng": 115.8614,
    "population": 2384371,
    "country": "AU"
  },
  {
    "name": "Nagoya",
    "asciiName": "Nagoya",
    "lat": 35.1815,
    "lng": 136.9064,
    "population": 2332176,
    "country": "JP"
  },
  {
    "name": "Rome",
    "asciiName": "Rome",
    "lat": 41.8919,
    "lng": 12.5113,
    "population": 2318895,
    "country": "IT"
  },
  {
    "name": "Queens",
    "asciiName": "Queens",
    "lat": 40.6815,
    "lng": -73.8365,
    "population": 2316841,
    "country": "US"
  },
  {
    "name": "Houston",
    "asciiName": "Houston",
    "lat": 29.7633,
    "lng": -95.3633,
    "population": 2314157,
    "country": "US"
  },
  {
    "name": "Manaus",
    "asciiName": "Manaus",
    "lat": -3.1019,
    "lng": -60.025,
    "population": 2219580,
    "country": "BR"
  },
  {
    "name": "Brasília",
    "asciiName": "Brasilia",
    "lat": -15.7797,
    "lng": -47.9297,
    "population": 2207718,
    "country": "BR"
  },
  {
    "name": "Paris",
    "asciiName": "Paris",
    "lat": 48.8534,
    "lng": 2.3488,
    "population": 2138551,
    "country": "FR"
  },
  {
    "name": "Córdoba",
    "asciiName": "Cordoba",
    "lat": -31.4065,
    "lng": -64.1885,
    "population": 2106734,
    "country": "AR"
  },
  {
    "name": "Medellín",
    "asciiName": "Medellin",
    "lat": 6.245,
    "lng": -75.5715,
    "population": 1999979,
    "country": "CO"
  },
  {
    "name": "Hamburg",
    "asciiName": "Hamburg",
    "lat": 53.5507,
    "lng": 9.993,
    "population": 1973896,
    "country": "DE"
  },
  {
    "name": "Sapporo",
    "asciiName": "Sapporo",
    "lat": 43.0667,
    "lng": 141.35,
    "population": 1973832,
    "country": "JP"
  },
  {
    "name": "Curitiba",
    "asciiName": "Curitiba",
    "lat": -25.4278,
    "lng": -49.2731,
    "population": 1948626,
    "country": "BR"
  },
  {
    "name": "Tijuana",
    "asciiName": "Tijuana",
    "lat": 32.5027,
    "lng": -117.0037,
    "population": 1922523,
    "country": "MX"
  },
  {
    "name": "Iztapalapa",
    "asciiName": "Iztapalapa",
    "lat": 19.3553,
    "lng": -99.0622,
    "population": 1835486,
    "country": "MX"
  },
  {
    "name": "Montréal",
    "asciiName": "Montreal",
    "lat": 45.5088,
    "lng": -73.5878,
    "population": 1762949,
    "country": "CA"
  },
  {
    "name": "Puebla",
    "asciiName": "Puebla",
    "lat": 19.0478,
    "lng": -98.2072,
    "population": 1692181,
    "country": "MX"
  },
  {
    "name": "Barcelona",
    "asciiName": "Barcelona",
    "lat": 41.3888,
    "lng": 2.159,
    "population": 1686208,
    "country": "ES"
  },
  {
    "name": "Recife",
    "asciiName": "Recife",
    "lat": -8.0539,
    "lng": -34.8811,
    "population": 1653461,
    "country": "BR"
  },
  {
    "name": "Phoenix",
    "asciiName": "Phoenix",
    "lat": 33.4484,
    "lng": -112.074,
    "population": 1650070,
    "country": "US"
  },
  {
    "name": "Ecatepec de Morelos",
    "asciiName": "Ecatepec de Morelos",
    "lat": 19.6049,
    "lng": -99.0606,
    "population": 1645352,
    "country": "MX"
  },
  {
    "name": "Fukuoka",
    "asciiName": "Fukuoka",
    "lat": 33.6,
    "lng": 130.4167,
    "population": 1612392,
    "country": "JP"
  },
  {
    "name": "Santiago de Querétaro",
    "asciiName": "Santiago de Queretaro",
    "lat": 20.5881,
    "lng": -100.3881,
    "population": 1594212,
    "country": "MX"
  },
  {
    "name": "León de los Aldama",
    "asciiName": "Leon de los Aldama",
    "lat": 21.1218,
    "lng": -101.6825,
    "population": 1579803,
    "country": "MX"
  },
  {
    "name": "Philadelphia",
    "asciiName": "Philadelphia",
    "lat": 39.9524,
    "lng": -75.1636,
    "population": 1573916,
    "country": "US"
  },
  {
    "name": "Kawasaki",
    "asciiName": "Kawasaki",
    "lat": 35.5206,
    "lng": 139.7172,
    "population": 1538262,
    "country": "JP"
  },
  {
    "name": "Goiânia",
    "asciiName": "Goiania",
    "lat": -16.6786,
    "lng": -49.2539,
    "population": 1536097,
    "country": "BR"
  },
  {
    "name": "San Antonio",
    "asciiName": "San Antonio",
    "lat": 29.4241,
    "lng": -98.4936,
    "population": 1526656,
    "country": "US"
  },
  {
    "name": "Kobe",
    "asciiName": "Kobe",
    "lat": 34.6913,
    "lng": 135.183,
    "population": 1525152,
    "country": "JP"
  },
  {
    "name": "Ciudad Juárez",
    "asciiName": "Ciudad Juarez",
    "lat": 31.7202,
    "lng": -106.4608,
    "population": 1512450,
    "country": "MX"
  },
  {
    "name": "Munich",
    "asciiName": "Munich",
    "lat": 48.1374,
    "lng": 11.5755,
    "population": 1505005,
    "country": "DE"
  },
  {
    "name": "Belém",
    "asciiName": "Belem",
    "lat": -1.4558,
    "lng": -48.5044,
    "population": 1499641,
    "country": "BR"
  },
  {
    "name": "Porto Alegre",
    "asciiName": "Porto Alegre",
    "lat": -30.0328,
    "lng": -51.2302,
    "population": 1488252,
    "country": "BR"
  },
  {
    "name": "Manhattan",
    "asciiName": "Manhattan",
    "lat": 40.7834,
    "lng": -73.9662,
    "population": 1487536,
    "country": "US"
  },
  {
    "name": "Asunción",
    "asciiName": "Asuncion",
    "lat": -25.2865,
    "lng": -57.647,
    "population": 1482200,
    "country": "PY"
  },
  {
    "name": "Zapopan",
    "asciiName": "Zapopan",
    "lat": 20.7211,
    "lng": -103.3874,
    "population": 1476491,
    "country": "MX"
  },
  {
    "name": "Adelaide",
    "asciiName": "Adelaide",
    "lat": -34.9287,
    "lng": 138.5986,
    "population": 1469163,
    "country": "AU"
  },
  {
    "name": "Kyoto",
    "asciiName": "Kyoto",
    "lat": 35.0211,
    "lng": 135.7539,
    "population": 1463723,
    "country": "JP"
  },
  {
    "name": "San Diego",
    "asciiName": "San Diego",
    "lat": 32.7157,
    "lng": -117.1647,
    "population": 1404452,
    "country": "US"
  },
  {
    "name": "Guadalajara",
    "asciiName": "Guadalajara",
    "lat": 20.6774,
    "lng": -103.3475,
    "population": 1385629,
    "country": "MX"
  },
  {
    "name": "The Bronx",
    "asciiName": "The Bronx",
    "lat": 40.8499,
    "lng": -73.8664,
    "population": 1385108,
    "country": "US"
  },
  {
    "name": "Milan",
    "asciiName": "Milan",
    "lat": 45.4643,
    "lng": 9.1895,
    "population": 1371498,
    "country": "IT"
  },
  {
    "name": "Dallas",
    "asciiName": "Dallas",
    "lat": 32.7831,
    "lng": -96.8067,
    "population": 1326087,
    "country": "US"
  },
  {
    "name": "Saitama",
    "asciiName": "Saitama",
    "lat": 35.9081,
    "lng": 139.6566,
    "population": 1324854,
    "country": "JP"
  },
  {
    "name": "Calgary",
    "asciiName": "Calgary",
    "lat": 51.0501,
    "lng": -114.0853,
    "population": 1306784,
    "country": "CA"
  },
  {
    "name": "Montevideo",
    "asciiName": "Montevideo",
    "lat": -34.9033,
    "lng": -56.1882,
    "population": 1270737,
    "country": "UY"
  },
  {
    "name": "Maputo",
    "asciiName": "Maputo",
    "lat": -25.9655,
    "lng": 32.5832,
    "population": 1254837,
    "country": "MZ"
  },
  {
    "name": "Callao",
    "asciiName": "Callao",
    "lat": -12.0516,
    "lng": -77.1345,
    "population": 1226200,
    "country": "PE"
  },
  {
    "name": "Barranquilla",
    "asciiName": "Barranquilla",
    "lat": 10.9685,
    "lng": -74.7813,
    "population": 1206319,
    "country": "CO"
  },
  {
    "name": "Mérida",
    "asciiName": "Merida",
    "lat": 20.967,
    "lng": -89.6232,
    "population": 1201000,
    "country": "MX"
  },
  {
    "name": "Hiroshima",
    "asciiName": "Hiroshima",
    "lat": 34.4,
    "lng": 132.45,
    "population": 1200754,
    "country": "JP"
  },
  {
    "name": "Matola",
    "asciiName": "Matola",
    "lat": -25.9622,
    "lng": 32.4589,
    "population": 1198988,
    "country": "MZ"
  },
  {
    "name": "Arequipa",
    "asciiName": "Arequipa",
    "lat": -16.399,
    "lng": -71.5375,
    "population": 1195700,
    "country": "PE"
  },
  {
    "name": "Gustavo Adolfo Madero",
    "asciiName": "Gustavo Adolfo Madero",
    "lat": 19.4939,
    "lng": -99.1107,
    "population": 1185772,
    "country": "MX"
  },
  {
    "name": "Guarulhos",
    "asciiName": "Guarulhos",
    "lat": -23.4628,
    "lng": -46.5333,
    "population": 1169577,
    "country": "BR"
  },
  {
    "name": "Birmingham",
    "asciiName": "Birmingham",
    "lat": 52.4814,
    "lng": -1.8998,
    "population": 1157603,
    "country": "GB"
  },
  {
    "name": "Monterrey",
    "asciiName": "Monterrey",
    "lat": 25.6843,
    "lng": -100.3172,
    "population": 1135512,
    "country": "MX"
  },
  {
    "name": "Sendai",
    "asciiName": "Sendai",
    "lat": 38.2667,
    "lng": 140.8667,
    "population": 1096704,
    "country": "JP"
  },
  {
    "name": "Ciudad Nezahualcoyotl",
    "asciiName": "Ciudad Nezahualcoyotl",
    "lat": 19.4006,
    "lng": -99.0148,
    "population": 1077208,
    "country": "MX"
  },
  {
    "name": "Trujillo",
    "asciiName": "Trujillo",
    "lat": -8.116,
    "lng": -79.03,
    "population": 1067700,
    "country": "PE"
  },
  {
    "name": "Mexicali",
    "asciiName": "Mexicali",
    "lat": 32.6278,
    "lng": -115.4545,
    "population": 1032686,
    "country": "MX"
  },
  {
    "name": "Maceió",
    "asciiName": "Maceio",
    "lat": -9.6658,
    "lng": -35.7353,
    "population": 1031597,
    "country": "BR"
  },
  {
    "name": "Campinas",
    "asciiName": "Campinas",
    "lat": -22.9056,
    "lng": -47.0608,
    "population": 1031554,
    "country": "BR"
  },
  {
    "name": "Köln",
    "asciiName": "Koeln",
    "lat": 50.9333,
    "lng": 6.95,
    "population": 1024621,
    "country": "DE"
  },
  {
    "name": "Dublin",
    "asciiName": "Dublin",
    "lat": 53.3331,
    "lng": -6.2489,
    "population": 1024027,
    "country": "IE"
  },
  {
    "name": "Ottawa",
    "asciiName": "Ottawa",
    "lat": 45.4112,
    "lng": -75.6981,
    "population": 1017449,
    "country": "CA"
  },
  {
    "name": "Edmonton",
    "asciiName": "Edmonton",
    "lat": 53.5501,
    "lng": -113.4687,
    "population": 1010899,
    "country": "CA"
  },
  {
    "name": "Jacksonville",
    "asciiName": "Jacksonville",
    "lat": 30.3322,
    "lng": -81.6556,
    "population": 1009833,
    "country": "US"
  },
  {
    "name": "Fort Worth",
    "asciiName": "Fort Worth",
    "lat": 32.7254,
    "lng": -97.3208,
    "population": 1008106,
    "country": "US"
  },
  {
    "name": "San Jose",
    "asciiName": "San Jose",
    "lat": 37.3394,
    "lng": -121.895,
    "population": 997368,
    "country": "US"
  },
  {
    "name": "Kennedy",
    "asciiName": "Kennedy",
    "lat": 4.6165,
    "lng": -74.146,
    "population": 979914,
    "country": "CO"
  },
  {
    "name": "Chiba",
    "asciiName": "Chiba",
    "lat": 35.6,
    "lng": 140.1167,
    "population": 979768,
    "country": "JP"
  },
  {
    "name": "Austin",
    "asciiName": "Austin",
    "lat": 30.2672,
    "lng": -97.7431,
    "population": 974447,
    "country": "US"
  },
  {
    "name": "Rosario",
    "asciiName": "Rosario",
    "lat": -32.9468,
    "lng": -60.6393,
    "population": 948312,
    "country": "AR"
  },
  {
    "name": "Kitakyushu",
    "asciiName": "Kitakyushu",
    "lat": 33.8518,
    "lng": 130.8503,
    "population": 940978,
    "country": "JP"
  },
  {
    "name": "Setagaya",
    "asciiName": "Setagaya",
    "lat": 35.6419,
    "lng": 139.6472,
    "population": 940071,
    "country": "JP"
  },
  {
    "name": "Chihuahua",
    "asciiName": "Chihuahua",
    "lat": 28.6353,
    "lng": -106.0889,
    "population": 925762,
    "country": "MX"
  },
  {
    "name": "São Luís",
    "asciiName": "Sao Luis",
    "lat": -2.5297,
    "lng": -44.3028,
    "population": 917237,
    "country": "BR"
  },
  {
    "name": "Cartagena",
    "asciiName": "Cartagena",
    "lat": 10.3982,
    "lng": -75.4933,
    "population": 914552,
    "country": "CO"
  },
  {
    "name": "Columbus",
    "asciiName": "Columbus",
    "lat": 39.9612,
    "lng": -82.9988,
    "population": 913175,
    "country": "US"
  },
  {
    "name": "Charlotte",
    "asciiName": "Charlotte",
    "lat": 35.2271,
    "lng": -80.8431,
    "population": 911311,
    "country": "US"
  },
  {
    "name": "Naples",
    "asciiName": "Naples",
    "lat": 40.8522,
    "lng": 14.2681,
    "population": 909048,
    "country": "IT"
  },
  {
    "name": "Campo Grande",
    "asciiName": "Campo Grande",
    "lat": -20.4428,
    "lng": -54.6464,
    "population": 906092,
    "country": "BR"
  },
  {
    "name": "Natal",
    "asciiName": "Natal",
    "lat": -5.795,
    "lng": -35.2094,
    "population": 896708,
    "country": "BR"
  },
  {
    "name": "Cancún",
    "asciiName": "Cancun",
    "lat": 21.1743,
    "lng": -86.8466,
    "population": 888797,
    "country": "MX"
  },
  {
    "name": "Indianapolis",
    "asciiName": "Indianapolis",
    "lat": 39.7684,
    "lng": -86.158,
    "population": 887642,
    "country": "US"
  },
  {
    "name": "Mulenvos",
    "asciiName": "Mulenvos",
    "lat": -8.8669,
    "lng": 13.3344,
    "population": 882014,
    "country": "AO"
  },
  {
    "name": "Marseille",
    "asciiName": "Marseille",
    "lat": 43.297,
    "lng": 5.3811,
    "population": 877215,
    "country": "FR"
  },
  {
    "name": "Teresina",
    "asciiName": "Teresina",
    "lat": -5.0892,
    "lng": -42.8019,
    "population": 871126,
    "country": "BR"
  },
  {
    "name": "Rotterdam",
    "asciiName": "Rotterdam",
    "lat": 51.9225,
    "lng": 4.4792,
    "population": 868135,
    "country": "NL"
  },
  {
    "name": "Viana",
    "asciiName": "Viana",
    "lat": -8.9055,
    "lng": 13.375,
    "population": 865863,
    "country": "AO"
  },
  {
    "name": "Turin",
    "asciiName": "Turin",
    "lat": 45.0705,
    "lng": 7.6868,
    "population": 847287,
    "country": "IT"
  },
  {
    "name": "Naucalpan de Juárez",
    "asciiName": "Naucalpan de Juarez",
    "lat": 19.4785,
    "lng": -99.2396,
    "population": 834434,
    "country": "MX"
  },
  {
    "name": "San Francisco",
    "asciiName": "San Francisco",
    "lat": 37.7749,
    "lng": -122.4194,
    "population": 827526,
    "country": "US"
  },
  {
    "name": "Sakai",
    "asciiName": "Sakai",
    "lat": 34.5822,
    "lng": 135.4665,
    "population": 826161,
    "country": "JP"
  },
  {
    "name": "Valencia",
    "asciiName": "Valencia",
    "lat": 39.4739,
    "lng": -0.3797,
    "population": 824340,
    "country": "ES"
  },
  {
    "name": "Nova Iguaçu",
    "asciiName": "Nova Iguacu",
    "lat": -22.7592,
    "lng": -43.4511,
    "population": 823302,
    "country": "BR"
  },
  {
    "name": "Duque de Caxias",
    "asciiName": "Duque de Caxias",
    "lat": -22.7856,
    "lng": -43.3117,
    "population": 818329,
    "country": "BR"
  },
  {
    "name": "João Pessoa",
    "asciiName": "Joao Pessoa",
    "lat": -7.115,
    "lng": -34.8631,
    "population": 817511,
    "country": "BR"
  },
  {
    "name": "Hermosillo",
    "asciiName": "Hermosillo",
    "lat": 29.0887,
    "lng": -110.9668,
    "population": 812229,
    "country": "MX"
  },
  {
    "name": "Culiacán",
    "asciiName": "Culiacan",
    "lat": 24.8021,
    "lng": -107.3942,
    "population": 808416,
    "country": "MX"
  },
  {
    "name": "Niigata",
    "asciiName": "Niigata",
    "lat": 37.9226,
    "lng": 139.0413,
    "population": 797591,
    "country": "JP"
  },
  {
    "name": "Hamamatsu",
    "asciiName": "Hamamatsu",
    "lat": 34.7,
    "lng": 137.7333,
    "population": 791707,
    "country": "JP"
  },
  {
    "name": "Seattle",
    "asciiName": "Seattle",
    "lat": 47.6062,
    "lng": -122.3321,
    "population": 780995,
    "country": "US"
  },
  {
    "name": "Cúcuta",
    "asciiName": "Cucuta",
    "lat": 7.9075,
    "lng": -72.5049,
    "population": 777106,
    "country": "CO"
  },
  {
    "name": "Nampula",
    "asciiName": "Nampula",
    "lat": -15.1165,
    "lng": 39.2666,
    "population": 770379,
    "country": "MZ"
  },
  {
    "name": "Winnipeg",
    "asciiName": "Winnipeg",
    "lat": 49.8844,
    "lng": -97.147,
    "population": 749607,
    "country": "CA"
  },
  {
    "name": "Ōta",
    "asciiName": "Ota",
    "lat": 35.5613,
    "lng": 139.7161,
    "population": 748081,
    "country": "JP"
  },
  {
    "name": "São Bernardo do Campo",
    "asciiName": "Sao Bernardo do Campo",
    "lat": -23.6939,
    "lng": -46.565,
    "population": 743372,
    "country": "BR"
  },
  {
    "name": "Morelia",
    "asciiName": "Morelia",
    "lat": 19.7008,
    "lng": -101.1844,
    "population": 743275,
    "country": "MX"
  },
  {
    "name": "Amsterdam",
    "asciiName": "Amsterdam",
    "lat": 52.374,
    "lng": 4.8897,
    "population": 741636,
    "country": "NL"
  },
  {
    "name": "Kumamoto",
    "asciiName": "Kumamoto",
    "lat": 32.8059,
    "lng": 130.6918,
    "population": 738907,
    "country": "JP"
  },
  {
    "name": "Torreón",
    "asciiName": "Torreon",
    "lat": 25.5439,
    "lng": -103.419,
    "population": 735340,
    "country": "MX"
  },
  {
    "name": "São José dos Campos",
    "asciiName": "Sao Jose dos Campos",
    "lat": -23.1794,
    "lng": -45.8869,
    "population": 729737,
    "country": "BR"
  },
  {
    "name": "Denver",
    "asciiName": "Denver",
    "lat": 39.7392,
    "lng": -104.9847,
    "population": 729019,
    "country": "US"
  },
  {
    "name": "Osasco",
    "asciiName": "Osasco",
    "lat": -23.5325,
    "lng": -46.7917,
    "population": 728615,
    "country": "BR"
  },
  {
    "name": "Kikolo",
    "asciiName": "Kikolo",
    "lat": -8.7815,
    "lng": 13.3338,
    "population": 728205,
    "country": "AO"
  },
  {
    "name": "Maianga",
    "asciiName": "Maianga",
    "lat": -8.8469,
    "lng": 13.237,
    "population": 727681,
    "country": "AO"
  },
  {
    "name": "Álvaro Obregón",
    "asciiName": "Alvaro Obregon",
    "lat": 19.3587,
    "lng": -99.2033,
    "population": 726664,
    "country": "MX"
  },
  {
    "name": "Aihara",
    "asciiName": "Aihara",
    "lat": 35.6,
    "lng": 139.3167,
    "population": 725493,
    "country": "JP"
  },
  {
    "name": "Okayama",
    "asciiName": "Okayama",
    "lat": 34.65,
    "lng": 133.9333,
    "population": 724691,
    "country": "JP"
  },
  {
    "name": "San Luis Potosí",
    "asciiName": "San Luis Potosi",
    "lat": 22.1523,
    "lng": -100.9713,
    "population": 722772,
    "country": "MX"
  },
  {
    "name": "Aguascalientes",
    "asciiName": "Aguascalientes",
    "lat": 21.8826,
    "lng": -102.2843,
    "population": 722250,
    "country": "MX"
  },
  {
    "name": "Sagamihara",
    "asciiName": "Sagamihara",
    "lat": 35.5671,
    "lng": 139.2417,
    "population": 720780,
    "country": "JP"
  },
  {
    "name": "Mississauga",
    "asciiName": "Mississauga",
    "lat": 43.5789,
    "lng": -79.6583,
    "population": 717961,
    "country": "CA"
  },
  {
    "name": "Ribeirão Preto",
    "asciiName": "Ribeirao Preto",
    "lat": -21.1775,
    "lng": -47.8103,
    "population": 711825,
    "country": "BR"
  },
  {
    "name": "Saltillo",
    "asciiName": "Saltillo",
    "lat": 25.426,
    "lng": -100.9796,
    "population": 709671,
    "country": "MX"
  },
  {
    "name": "Edogawe",
    "asciiName": "Edogawe",
    "lat": 35.6923,
    "lng": 139.8731,
    "population": 697932,
    "country": "JP"
  },
  {
    "name": "Adachi",
    "asciiName": "Adachi",
    "lat": 35.7632,
    "lng": 139.8076,
    "population": 695043,
    "country": "JP"
  },
  {
    "name": "Shizuoka",
    "asciiName": "Shizuoka",
    "lat": 34.9833,
    "lng": 138.3833,
    "population": 693389,
    "country": "JP"
  },
  {
    "name": "Washington",
    "asciiName": "Washington",
    "lat": 38.8951,
    "lng": -77.0364,
    "population": 689545,
    "country": "US"
  },
  {
    "name": "Nashville",
    "asciiName": "Nashville",
    "lat": 36.1659,
    "lng": -86.7844,
    "population": 689447,
    "country": "US"
  },
  {
    "name": "Beira",
    "asciiName": "Beira",
    "lat": -19.8436,
    "lng": 34.8389,
    "population": 687764,
    "country": "MZ"
  },
  {
    "name": "Sorocaba",
    "asciiName": "Sorocaba",
    "lat": -23.5017,
    "lng": -47.4581,
    "population": 687357,
    "country": "BR"
  },
  {
    "name": "Zaragoza",
    "asciiName": "Zaragoza",
    "lat": 41.6561,
    "lng": -0.8773,
    "population": 686986,
    "country": "ES"
  },
  {
    "name": "Sevilla",
    "asciiName": "Sevilla",
    "lat": 37.3828,
    "lng": -5.9732,
    "population": 686741,
    "country": "ES"
  },
  {
    "name": "Oklahoma City",
    "asciiName": "Oklahoma City",
    "lat": 35.4676,
    "lng": -97.5164,
    "population": 681054,
    "country": "US"
  },
  {
    "name": "El Paso",
    "asciiName": "El Paso",
    "lat": 31.7587,
    "lng": -106.4869,
    "population": 678815,
    "country": "US"
  },
  {
    "name": "Guadalupe",
    "asciiName": "Guadalupe",
    "lat": 25.6766,
    "lng": -100.2591,
    "population": 673616,
    "country": "MX"
  },
  {
    "name": "Camama",
    "asciiName": "Camama",
    "lat": -8.9361,
    "lng": 13.2652,
    "population": 667094,
    "country": "AO"
  },
  {
    "name": "Aracaju",
    "asciiName": "Aracaju",
    "lat": -10.9111,
    "lng": -37.0717,
    "population": 664908,
    "country": "BR"
  },
  {
    "name": "Santo André",
    "asciiName": "Santo Andre",
    "lat": -23.6639,
    "lng": -46.5383,
    "population": 662373,
    "country": "BR"
  },
  {
    "name": "Vancouver",
    "asciiName": "Vancouver",
    "lat": 49.2497,
    "lng": -123.1193,
    "population": 662248,
    "country": "CA"
  },
  {
    "name": "Acapulco de Juárez",
    "asciiName": "Acapulco de Juarez",
    "lat": 16.8494,
    "lng": -99.9089,
    "population": 658609,
    "country": "MX"
  },
  {
    "name": "Brampton",
    "asciiName": "Brampton",
    "lat": 43.6834,
    "lng": -79.7663,
    "population": 656480,
    "country": "CA"
  },
  {
    "name": "Golfe",
    "asciiName": "Golfe",
    "lat": -8.8664,
    "lng": 13.2617,
    "population": 655796,
    "country": "AO"
  },
  {
    "name": "Soacha",
    "asciiName": "Soacha",
    "lat": 4.5794,
    "lng": -74.2168,
    "population": 655025,
    "country": "CO"
  },
  {
    "name": "Boston",
    "asciiName": "Boston",
    "lat": 42.3584,
    "lng": -71.0598,
    "population": 653833,
    "country": "US"
  },
  {
    "name": "Tlalnepantla",
    "asciiName": "Tlalnepantla",
    "lat": 19.5401,
    "lng": -99.1954,
    "population": 653410,
    "country": "MX"
  },
  {
    "name": "Portland",
    "asciiName": "Portland",
    "lat": 45.5234,
    "lng": -122.6762,
    "population": 652503,
    "country": "US"
  },
  {
    "name": "Calumbo",
    "asciiName": "Calumbo",
    "lat": -9.1469,
    "lng": 13.4194,
    "population": 652270,
    "country": "AO"
  },
  {
    "name": "Tlaquepaque",
    "asciiName": "Tlaquepaque",
    "lat": 20.6412,
    "lng": -103.2934,
    "population": 650123,
    "country": "MX"
  },
  {
    "name": "Frankfurt am Main",
    "asciiName": "Frankfurt am Main",
    "lat": 50.1155,
    "lng": 8.6842,
    "population": 650000,
    "country": "DE"
  },
  {
    "name": "Palermo",
    "asciiName": "Palermo",
    "lat": 38.1166,
    "lng": 13.3636,
    "population": 648260,
    "country": "IT"
  },
  {
    "name": "Detroit",
    "asciiName": "Detroit",
    "lat": 42.3314,
    "lng": -83.0457,
    "population": 645705,
    "country": "US"
  },
  {
    "name": "Honchō",
    "asciiName": "Honcho",
    "lat": 35.7013,
    "lng": 139.9865,
    "population": 644668,
    "country": "JP"
  },
  {
    "name": "Jaboatão dos Guararapes",
    "asciiName": "Jaboatao dos Guararapes",
    "lat": -8.1128,
    "lng": -35.0147,
    "population": 644037,
    "country": "BR"
  },
  {
    "name": "Hoji ya Henda",
    "asciiName": "Hoji ya Henda",
    "lat": -8.8052,
    "lng": 13.2897,
    "population": 642050,
    "country": "AO"
  },
  {
    "name": "Las Vegas",
    "asciiName": "Las Vegas",
    "lat": 36.175,
    "lng": -115.1372,
    "population": 641903,
    "country": "US"
  },
  {
    "name": "New South Memphis",
    "asciiName": "New South Memphis",
    "lat": 35.0868,
    "lng": -90.0568,
    "population": 641608,
    "country": "US"
  },
  {
    "name": "Gold Coast",
    "asciiName": "Gold Coast",
    "lat": -28.0003,
    "lng": 153.4309,
    "population": 640778,
    "country": "AU"
  },
  {
    "name": "Memphis",
    "asciiName": "Memphis",
    "lat": 35.1495,
    "lng": -90.049,
    "population": 633104,
    "country": "US"
  },
  {
    "name": "Piura",
    "asciiName": "Piura",
    "lat": -5.1819,
    "lng": -80.6571,
    "population": 630000,
    "country": "PE"
  },
  {
    "name": "Contagem",
    "asciiName": "Contagem",
    "lat": -19.9317,
    "lng": -44.0536,
    "population": 627123,
    "country": "BR"
  },
  {
    "name": "Glasgow",
    "asciiName": "Glasgow",
    "lat": 55.8652,
    "lng": -4.2576,
    "population": 626410,
    "country": "GB"
  },
  {
    "name": "Louisville",
    "asciiName": "Louisville",
    "lat": 38.2542,
    "lng": -85.7594,
    "population": 624444,
    "country": "US"
  },
  {
    "name": "Feira de Santana",
    "asciiName": "Feira de Santana",
    "lat": -12.2667,
    "lng": -38.9667,
    "population": 619609,
    "country": "BR"
  },
  {
    "name": "Düsseldorf",
    "asciiName": "Duesseldorf",
    "lat": 51.2232,
    "lng": 6.7793,
    "population": 618685,
    "country": "DE"
  },
  {
    "name": "Cuiabá",
    "asciiName": "Cuiaba",
    "lat": -15.5961,
    "lng": -56.0967,
    "population": 618124,
    "country": "BR"
  },
  {
    "name": "Coyoacán",
    "asciiName": "Coyoacan",
    "lat": 19.3467,
    "lng": -99.1617,
    "population": 614447,
    "country": "MX"
  },
  {
    "name": "Stuttgart",
    "asciiName": "Stuttgart",
    "lat": 48.7823,
    "lng": 9.177,
    "population": 612663,
    "country": "DE"
  },
  {
    "name": "Chiclayo",
    "asciiName": "Chiclayo",
    "lat": -6.7701,
    "lng": -79.8549,
    "population": 609400,
    "country": "PE"
  },
  {
    "name": "Kawaguchi",
    "asciiName": "Kawaguchi",
    "lat": 35.8052,
    "lng": 139.7107,
    "population": 607373,
    "country": "JP"
  },
  {
    "name": "Tuxtla",
    "asciiName": "Tuxtla",
    "lat": 16.7536,
    "lng": -93.1158,
    "population": 604147,
    "country": "MX"
  },
  {
    "name": "Lubango",
    "asciiName": "Lubango",
    "lat": -14.9172,
    "lng": 13.4925,
    "population": 600751,
    "country": "AO"
  },
  {
    "name": "Huambo",
    "asciiName": "Huambo",
    "lat": -12.7761,
    "lng": 15.7392,
    "population": 595304,
    "country": "AO"
  },
  {
    "name": "Kagoshima",
    "asciiName": "Kagoshima",
    "lat": 31.5667,
    "lng": 130.55,
    "population": 595049,
    "country": "JP"
  },
  {
    "name": "Mar del Plata",
    "asciiName": "Mar del Plata",
    "lat": -38.0004,
    "lng": -57.5562,
    "population": 593337,
    "country": "AR"
  },
  {
    "name": "Essen",
    "asciiName": "Essen",
    "lat": 51.4566,
    "lng": 7.0123,
    "population": 593085,
    "country": "DE"
  },
  {
    "name": "Málaga",
    "asciiName": "Malaga",
    "lat": 36.7202,
    "lng": -4.4203,
    "population": 592346,
    "country": "ES"
  },
  {
    "name": "Reynosa",
    "asciiName": "Reynosa",
    "lat": 26.0801,
    "lng": -98.2846,
    "population": 589466,
    "country": "MX"
  },
  {
    "name": "Dortmund",
    "asciiName": "Dortmund",
    "lat": 51.5149,
    "lng": 7.466,
    "population": 588462,
    "country": "DE"
  },
  {
    "name": "Suginami",
    "asciiName": "Suginami",
    "lat": 36.2013,
    "lng": 140.2841,
    "population": 588354,
    "country": "JP"
  },
  {
    "name": "Londrina",
    "asciiName": "Londrina",
    "lat": -23.3103,
    "lng": -51.1628,
    "population": 588125,
    "country": "BR"
  },
  {
    "name": "Baltimore",
    "asciiName": "Baltimore",
    "lat": 39.2904,
    "lng": -76.6122,
    "population": 585708,
    "country": "US"
  },
  {
    "name": "Itabashi",
    "asciiName": "Itabashi",
    "lat": 35.7489,
    "lng": 139.715,
    "population": 584483,
    "country": "JP"
  },
  {
    "name": "Bucaramanga",
    "asciiName": "Bucaramanga",
    "lat": 7.125,
    "lng": -73.1189,
    "population": 581130,
    "country": "CO"
  },
  {
    "name": "Genoa",
    "asciiName": "Genoa",
    "lat": 44.4048,
    "lng": 8.9444,
    "population": 580097,
    "country": "IT"
  },
  {
    "name": "Hachiōji",
    "asciiName": "Hachioji",
    "lat": 35.6558,
    "lng": 139.3239,
    "population": 579355,
    "country": "JP"
  },
  {
    "name": "Tlalpan",
    "asciiName": "Tlalpan",
    "lat": 19.2951,
    "lng": -99.1621,
    "population": 574577,
    "country": "MX"
  },
  {
    "name": "Juiz de Fora",
    "asciiName": "Juiz de Fora",
    "lat": -21.7642,
    "lng": -43.3503,
    "population": 573285,
    "country": "BR"
  },
  {
    "name": "South Boston",
    "asciiName": "South Boston",
    "lat": 42.3334,
    "lng": -71.0495,
    "population": 571281,
    "country": "US"
  },
  {
    "name": "Hamilton",
    "asciiName": "Hamilton",
    "lat": 43.2501,
    "lng": -79.8496,
    "population": 569353,
    "country": "CA"
  },
  {
    "name": "Manchester",
    "asciiName": "Manchester",
    "lat": 53.481,
    "lng": -2.2374,
    "population": 568996,
    "country": "GB"
  },
  {
    "name": "Surrey",
    "asciiName": "Surrey",
    "lat": 49.1064,
    "lng": -122.8251,
    "population": 568322,
    "country": "CA"
  },
  {
    "name": "Puente Alto",
    "asciiName": "Puente Alto",
    "lat": -33.6117,
    "lng": -70.5758,
    "population": 568106,
    "country": "CL"
  },
  {
    "name": "Dresden",
    "asciiName": "Dresden",
    "lat": 51.0509,
    "lng": 13.7383,
    "population": 564904,
    "country": "DE"
  },
  {
    "name": "Albuquerque",
    "asciiName": "Albuquerque",
    "lat": 35.0845,
    "lng": -106.6511,
    "population": 564559,
    "country": "US"
  },
  {
    "name": "Uberlândia",
    "asciiName": "Uberlandia",
    "lat": -18.9186,
    "lng": -48.2772,
    "population": 563536,
    "country": "BR"
  },
  {
    "name": "Milwaukee",
    "asciiName": "Milwaukee",
    "lat": 43.0389,
    "lng": -87.9065,
    "population": 563531,
    "country": "US"
  },
  {
    "name": "Sheffield",
    "asciiName": "Sheffield",
    "lat": 53.383,
    "lng": -1.4659,
    "population": 556500,
    "country": "GB"
  },
  {
    "name": "Cuautitlán Izcalli",
    "asciiName": "Cuautitlan Izcalli",
    "lat": 19.6439,
    "lng": -99.216,
    "population": 555163,
    "country": "MX"
  },
  {
    "name": "Benguela",
    "asciiName": "Benguela",
    "lat": -12.5767,
    "lng": 13.4027,
    "population": 555124,
    "country": "AO"
  },
  {
    "name": "Cabinda",
    "asciiName": "Cabinda",
    "lat": -5.562,
    "lng": 12.1948,
    "population": 550000,
    "country": "AO"
  },
  {
    "name": "Porto Velho",
    "asciiName": "Porto Velho",
    "lat": -8.7619,
    "lng": -63.9039,
    "population": 548952,
    "country": "BR"
  },
  {
    "name": "San Miguel de Tucumán",
    "asciiName": "San Miguel de Tucuman",
    "lat": -26.816,
    "lng": -65.2105,
    "population": 548866,
    "country": "AR"
  },
  {
    "name": "Bremen",
    "asciiName": "Bremen",
    "lat": 53.0758,
    "lng": 8.8072,
    "population": 546501,
    "country": "DE"
  },
  {
    "name": "Kotō",
    "asciiName": "Koto",
    "lat": 32.7786,
    "lng": 130.7454,
    "population": 543730,
    "country": "JP"
  },
  {
    "name": "Tucson",
    "asciiName": "Tucson",
    "lat": 32.2217,
    "lng": -110.9265,
    "population": 542629,
    "country": "US"
  },
  {
    "name": "Fresno",
    "asciiName": "Fresno",
    "lat": 36.7477,
    "lng": -119.7724,
    "population": 542107,
    "country": "US"
  },
  {
    "name": "Leeds",
    "asciiName": "Leeds",
    "lat": 53.7965,
    "lng": -1.5478,
    "population": 536280,
    "country": "GB"
  },
  {
    "name": "Québec",
    "asciiName": "Quebec",
    "lat": 46.8123,
    "lng": -71.2145,
    "population": 531902,
    "country": "CA"
  },
  {
    "name": "Cuauhtémoc",
    "asciiName": "Cuauhtemoc",
    "lat": 19.4451,
    "lng": -99.1461,
    "population": 531831,
    "country": "MX"
  },
  {
    "name": "Himeji",
    "asciiName": "Himeji",
    "lat": 34.8167,
    "lng": 134.7,
    "population": 530495,
    "country": "JP"
  },
  {
    "name": "Ibagué",
    "asciiName": "Ibague",
    "lat": 4.4357,
    "lng": -75.2029,
    "population": 529635,
    "country": "CO"
  },
  {
    "name": "Sacramento",
    "asciiName": "Sacramento",
    "lat": 38.5816,
    "lng": -121.4944,
    "population": 524943,
    "country": "US"
  },
  {
    "name": "Lyon",
    "asciiName": "Lyon",
    "lat": 45.7491,
    "lng": 4.8479,
    "population": 520774,
    "country": "FR"
  },
  {
    "name": "Salta",
    "asciiName": "Salta",
    "lat": -24.8065,
    "lng": -65.42,
    "population": 520683,
    "country": "AR"
  },
  {
    "name": "Serra",
    "asciiName": "Serra",
    "lat": -20.1286,
    "lng": -40.3078,
    "population": 520653,
    "country": "BR"
  },
  {
    "name": "Utsunomiya",
    "asciiName": "Utsunomiya",
    "lat": 36.5667,
    "lng": 139.8833,
    "population": 518757,
    "country": "JP"
  },
  {
    "name": "Victoria de Durango",
    "asciiName": "Victoria de Durango",
    "lat": 24.0203,
    "lng": -104.6576,
    "population": 518709,
    "country": "MX"
  },
  {
    "name": "Lisbon",
    "asciiName": "Lisbon",
    "lat": 38.7251,
    "lng": -9.1498,
    "population": 517802,
    "country": "PT"
  },
  {
    "name": "Nuremberg",
    "asciiName": "Nuremberg",
    "lat": 49.4542,
    "lng": 11.0775,
    "population": 515543,
    "country": "DE"
  },
  {
    "name": "Hannover",
    "asciiName": "Hannover",
    "lat": 52.3705,
    "lng": 9.7332,
    "population": 515140,
    "country": "DE"
  },
  {
    "name": "Edinburgh",
    "asciiName": "Edinburgh",
    "lat": 55.9521,
    "lng": -3.1965,
    "population": 514990,
    "country": "GB"
  },
  {
    "name": "Macapá",
    "asciiName": "Macapa",
    "lat": 0.0389,
    "lng": -51.0664,
    "population": 512902,
    "country": "BR"
  },
  {
    "name": "Toulouse",
    "asciiName": "Toulouse",
    "lat": 43.6043,
    "lng": 1.4437,
    "population": 511684,
    "country": "FR"
  },
  {
    "name": "Matsuyama",
    "asciiName": "Matsuyama",
    "lat": 33.8392,
    "lng": 132.7657,
    "population": 511192,
    "country": "JP"
  },
  {
    "name": "Campos dos Goytacazes",
    "asciiName": "Campos dos Goytacazes",
    "lat": -21.7523,
    "lng": -41.3304,
    "population": 511168,
    "country": "BR"
  },
  {
    "name": "Atlanta",
    "asciiName": "Atlanta",
    "lat": 33.749,
    "lng": -84.388,
    "population": 510823,
    "country": "US"
  },
  {
    "name": "Aparecida de Goiânia",
    "asciiName": "Aparecida de Goiania",
    "lat": -16.8233,
    "lng": -49.2439,
    "population": 510770,
    "country": "BR"
  },
  {
    "name": "Heroica Matamoros",
    "asciiName": "Heroica Matamoros",
    "lat": 25.8797,
    "lng": -97.5042,
    "population": 510739,
    "country": "MX"
  },
  {
    "name": "Florianópolis",
    "asciiName": "Florianopolis",
    "lat": -27.5967,
    "lng": -48.5492,
    "population": 508826,
    "country": "BR"
  },
  {
    "name": "Newcastle",
    "asciiName": "Newcastle",
    "lat": -32.9295,
    "lng": 151.7801,
    "population": 508437,
    "country": "AU"
  },
  {
    "name": "Leipzig",
    "asciiName": "Leipzig",
    "lat": 51.3396,
    "lng": 12.3713,
    "population": 504971,
    "country": "DE"
  },
  {
    "name": "Duisburg",
    "asciiName": "Duisburg",
    "lat": 51.4325,
    "lng": 6.7652,
    "population": 504358,
    "country": "DE"
  },
  {
    "name": "Maipú",
    "asciiName": "Maipu",
    "lat": -33.5142,
    "lng": -70.7651,
    "population": 503635,
    "country": "CL"
  },
  {
    "name": "Talatona",
    "asciiName": "Talatona",
    "lat": -8.9178,
    "lng": 13.1856,
    "population": 500000,
    "country": "AO"
  },
  {
    "name": "Santa Marta",
    "asciiName": "Santa Marta",
    "lat": 11.2386,
    "lng": -74.1943,
    "population": 499192,
    "country": "CO"
  },
  {
    "name": "Matsudo",
    "asciiName": "Matsudo",
    "lat": 35.78,
    "lng": 139.9014,
    "population": 498575,
    "country": "JP"
  },
  {
    "name": "Liverpool",
    "asciiName": "Liverpool",
    "lat": 53.4106,
    "lng": -2.9779,
    "population": 496770,
    "country": "GB"
  },
  {
    "name": "Ichikawa",
    "asciiName": "Ichikawa",
    "lat": 35.7341,
    "lng": 139.9065,
    "population": 496676,
    "country": "JP"
  },
  {
    "name": "Higashiosaka",
    "asciiName": "Higashiosaka",
    "lat": 34.6667,
    "lng": 135.5833,
    "population": 493940,
    "country": "JP"
  },
  {
    "name": "Montería",
    "asciiName": "Monteria",
    "lat": 8.7508,
    "lng": -75.8782,
    "population": 490935,
    "country": "CO"
  },
  {
    "name": "Valledupar",
    "asciiName": "Valledupar",
    "lat": 10.4654,
    "lng": -73.2531,
    "population": 490075,
    "country": "CO"
  },
  {
    "name": "Toluca",
    "asciiName": "Toluca",
    "lat": 19.2879,
    "lng": -99.6532,
    "population": 489333,
    "country": "MX"
  },
  {
    "name": "Ciudad López Mateos",
    "asciiName": "Ciudad Lopez Mateos",
    "lat": 19.5579,
    "lng": -99.2567,
    "population": 489160,
    "country": "MX"
  },
  {
    "name": "Miami",
    "asciiName": "Miami",
    "lat": 25.7743,
    "lng": -80.1937,
    "population": 487014,
    "country": "US"
  },
  {
    "name": "Omaha",
    "asciiName": "Omaha",
    "lat": 41.2563,
    "lng": -95.9404,
    "population": 486051,
    "country": "US"
  },
  {
    "name": "Nishinomiya",
    "asciiName": "Nishinomiya",
    "lat": 34.7156,
    "lng": 135.332,
    "population": 485587,
    "country": "JP"
  },
  {
    "name": "Kurashiki",
    "asciiName": "Kurashiki",
    "lat": 34.5833,
    "lng": 133.7667,
    "population": 483576,
    "country": "JP"
  },
  {
    "name": "Raleigh",
    "asciiName": "Raleigh",
    "lat": 35.7721,
    "lng": -78.6386,
    "population": 482295,
    "country": "US"
  },
  {
    "name": "São José do Rio Preto",
    "asciiName": "Sao Jose do Rio Preto",
    "lat": -20.8197,
    "lng": -49.3794,
    "population": 480393,
    "country": "BR"
  },
  {
    "name": "Bristol",
    "asciiName": "Bristol",
    "lat": 51.4552,
    "lng": -2.5966,
    "population": 479024,
    "country": "GB"
  },
  {
    "name": "Ōita",
    "asciiName": "Oita",
    "lat": 33.2333,
    "lng": 131.6,
    "population": 477715,
    "country": "JP"
  },
  {
    "name": "Mauá",
    "asciiName": "Maua",
    "lat": -23.6678,
    "lng": -46.4614,
    "population": 477552,
    "country": "BR"
  },
  {
    "name": "Kansas City",
    "asciiName": "Kansas City",
    "lat": 39.0997,
    "lng": -94.5786,
    "population": 475378,
    "country": "US"
  },
  {
    "name": "The Hague",
    "asciiName": "The Hague",
    "lat": 52.0767,
    "lng": 4.2986,
    "population": 474292,
    "country": "NL"
  },
  {
    "name": "Long Beach",
    "asciiName": "Long Beach",
    "lat": 33.767,
    "lng": -118.1892,
    "population": 474140,
    "country": "US"
  },
  {
    "name": "Murcia",
    "asciiName": "Murcia",
    "lat": 37.987,
    "lng": -1.13,
    "population": 471982,
    "country": "ES"
  },
  {
    "name": "Mesa",
    "asciiName": "Mesa",
    "lat": 33.4223,
    "lng": -111.8226,
    "population": 471825,
    "country": "US"
  },
  {
    "name": "Halifax",
    "asciiName": "Halifax",
    "lat": 44.6427,
    "lng": -63.5769,
    "population": 471559,
    "country": "CA"
  },
  {
    "name": "Fukuyama",
    "asciiName": "Fukuyama",
    "lat": 34.4833,
    "lng": 133.3667,
    "population": 468812,
    "country": "JP"
  },
  {
    "name": "Staten Island",
    "asciiName": "Staten Island",
    "lat": 40.5623,
    "lng": -74.1399,
    "population": 468730,
    "country": "US"
  },
  {
    "name": "Pereira",
    "asciiName": "Pereira",
    "lat": 4.8143,
    "lng": -75.6949,
    "population": 467269,
    "country": "CO"
  },
  {
    "name": "Ciudad Apodaca",
    "asciiName": "Ciudad Apodaca",
    "lat": 25.7814,
    "lng": -100.1891,
    "population": 467157,
    "country": "MX"
  },
  {
    "name": "São João de Meriti",
    "asciiName": "Sao Joao de Meriti",
    "lat": -22.8039,
    "lng": -43.3722,
    "population": 466536,
    "country": "BR"
  },
  {
    "name": "Belford Roxo",
    "asciiName": "Belford Roxo",
    "lat": -22.7642,
    "lng": -43.3994,
    "population": 466096,
    "country": "BR"
  },
  {
    "name": "Kanazawa",
    "asciiName": "Kanazawa",
    "lat": 36.6,
    "lng": 136.6167,
    "population": 466029,
    "country": "JP"
  },
  {
    "name": "Nova Vida",
    "asciiName": "Nova Vida",
    "lat": -8.9055,
    "lng": 13.2221,
    "population": 464985,
    "country": "AO"
  },
  {
    "name": "Joinville",
    "asciiName": "Joinville",
    "lat": -26.3044,
    "lng": -48.8456,
    "population": 461304,
    "country": "BR"
  },
  {
    "name": "Amagasaki",
    "asciiName": "Amagasaki",
    "lat": 34.7167,
    "lng": 135.4167,
    "population": 459593,
    "country": "JP"
  },
  {
    "name": "Colorado Springs",
    "asciiName": "Colorado Springs",
    "lat": 38.8339,
    "lng": -104.8214,
    "population": 456568,
    "country": "US"
  },
  {
    "name": "Niterói",
    "asciiName": "Niteroi",
    "lat": -22.8833,
    "lng": -43.1036,
    "population": 456456,
    "country": "BR"
  },
  {
    "name": "Huancayo",
    "asciiName": "Huancayo",
    "lat": -12.0687,
    "lng": -75.2103,
    "population": 456250,
    "country": "PE"
  },
  {
    "name": "Malanje",
    "asciiName": "Malanje",
    "lat": -9.5401,
    "lng": 16.341,
    "population": 455000,
    "country": "AO"
  },
  {
    "name": "Ciudad General Escobedo",
    "asciiName": "Ciudad General Escobedo",
    "lat": 25.7966,
    "lng": -100.3177,
    "population": 454967,
    "country": "MX"
  },
  {
    "name": "Virginia Beach",
    "asciiName": "Virginia Beach",
    "lat": 36.8529,
    "lng": -75.978,
    "population": 454808,
    "country": "US"
  },
  {
    "name": "Katsushika",
    "asciiName": "Katsushika",
    "lat": 35.7333,
    "lng": 139.85,
    "population": 453093,
    "country": "JP"
  },
  {
    "name": "Ensenada",
    "asciiName": "Ensenada",
    "lat": 31.8715,
    "lng": -116.6007,
    "population": 443807,
    "country": "MX"
  },
  {
    "name": "Jundiaí",
    "asciiName": "Jundiai",
    "lat": -23.1864,
    "lng": -46.8842,
    "population": 443221,
    "country": "BR"
  },
  {
    "name": "Xochimilco",
    "asciiName": "Xochimilco",
    "lat": 19.2547,
    "lng": -99.1036,
    "population": 442178,
    "country": "MX"
  },
  {
    "name": "Fujisawa",
    "asciiName": "Fujisawa",
    "lat": 35.3493,
    "lng": 139.4767,
    "population": 439728,
    "country": "JP"
  },
  {
    "name": "Laval",
    "asciiName": "Laval",
    "lat": 45.57,
    "lng": -73.692,
    "population": 438366,
    "country": "CA"
  },
  {
    "name": "Palma",
    "asciiName": "Palma",
    "lat": 39.5694,
    "lng": 2.6502,
    "population": 438234,
    "country": "ES"
  },
  {
    "name": "Manizales",
    "asciiName": "Manizales",
    "lat": 5.0668,
    "lng": -75.5068,
    "population": 434403,
    "country": "CO"
  },
  {
    "name": "Ananindeua",
    "asciiName": "Ananindeua",
    "lat": -1.3656,
    "lng": -48.3722,
    "population": 433956,
    "country": "BR"
  },
  {
    "name": "Santos",
    "asciiName": "Santos",
    "lat": -23.9608,
    "lng": -46.3336,
    "population": 433656,
    "country": "BR"
  },
  {
    "name": "Kashiwa",
    "asciiName": "Kashiwa",
    "lat": 35.8622,
    "lng": 139.9773,
    "population": 433436,
    "country": "JP"
  },
  {
    "name": "Buenaventura",
    "asciiName": "Buenaventura",
    "lat": 3.5833,
    "lng": -77,
    "population": 432385,
    "country": "CO"
  },
  {
    "name": "Machida",
    "asciiName": "Machida",
    "lat": 35.5403,
    "lng": 139.4508,
    "population": 431079,
    "country": "JP"
  },
  {
    "name": "Venustiano Carranza",
    "asciiName": "Venustiano Carranza",
    "lat": 19.4436,
    "lng": -99.105,
    "population": 430978,
    "country": "MX"
  },
  {
    "name": "Kima Kieza",
    "asciiName": "Kima Kieza",
    "lat": -8.8341,
    "lng": 13.2952,
    "population": 428855,
    "country": "AO"
  },
  {
    "name": "Cusco",
    "asciiName": "Cusco",
    "lat": -13.5319,
    "lng": -71.967,
    "population": 428450,
    "country": "PE"
  },
  {
    "name": "Veracruz",
    "asciiName": "Veracruz",
    "lat": 19.181,
    "lng": -96.1429,
    "population": 428323,
    "country": "MX"
  },
  {
    "name": "Toyota",
    "asciiName": "Toyota",
    "lat": 35.0833,
    "lng": 137.15,
    "population": 426162,
    "country": "JP"
  },
  {
    "name": "Xalapa de Enríquez",
    "asciiName": "Xalapa de Enriquez",
    "lat": 19.5312,
    "lng": -96.9159,
    "population": 424755,
    "country": "MX"
  },
  {
    "name": "Shinagawa",
    "asciiName": "Shinagawa",
    "lat": 33.6363,
    "lng": 133.0057,
    "population": 422488,
    "country": "JP"
  },
  {
    "name": "London",
    "asciiName": "London",
    "lat": 42.9834,
    "lng": -81.233,
    "population": 422324,
    "country": "CA"
  },
  {
    "name": "Chimoio",
    "asciiName": "Chimoio",
    "lat": -19.1164,
    "lng": 33.4833,
    "population": 422046,
    "country": "MZ"
  },
  {
    "name": "Boa Vista",
    "asciiName": "Boa Vista",
    "lat": 2.8197,
    "lng": -60.6733,
    "population": 419652,
    "country": "BR"
  },
  {
    "name": "Rio Branco",
    "asciiName": "Rio Branco",
    "lat": -9.9747,
    "lng": -67.81,
    "population": 419452,
    "country": "BR"
  },
  {
    "name": "Oakland",
    "asciiName": "Oakland",
    "lat": 37.8044,
    "lng": -122.2708,
    "population": 419267,
    "country": "US"
  },
  {
    "name": "Takamatsu",
    "asciiName": "Takamatsu",
    "lat": 34.3333,
    "lng": 134.05,
    "population": 418994,
    "country": "JP"
  },
  {
    "name": "Nuevo Laredo",
    "asciiName": "Nuevo Laredo",
    "lat": 27.4763,
    "lng": -99.5164,
    "population": 416055,
    "country": "MX"
  },
  {
    "name": "Toyama",
    "asciiName": "Toyama",
    "lat": 36.7,
    "lng": 137.2167,
    "population": 415844,
    "country": "JP"
  },
  {
    "name": "Zürich",
    "asciiName": "Zuerich",
    "lat": 47.3667,
    "lng": 8.55,
    "population": 415367,
    "country": "CH"
  },
  {
    "name": "Azcapotzalco",
    "asciiName": "Azcapotzalco",
    "lat": 19.487,
    "lng": -99.1859,
    "population": 414711,
    "country": "MX"
  },
  {
    "name": "Tampa",
    "asciiName": "Tampa",
    "lat": 27.9475,
    "lng": -82.4584,
    "population": 414547,
    "country": "US"
  },
  {
    "name": "Montes Claros",
    "asciiName": "Montes Claros",
    "lat": -16.735,
    "lng": -43.8617,
    "population": 414240,
    "country": "BR"
  },
  {
    "name": "Tulsa",
    "asciiName": "Tulsa",
    "lat": 36.154,
    "lng": -95.9928,
    "population": 413066,
    "country": "US"
  },
  {
    "name": "San Nicolás de los Garza",
    "asciiName": "San Nicolas de los Garza",
    "lat": 25.7417,
    "lng": -100.3022,
    "population": 412199,
    "country": "MX"
  },
  {
    "name": "Wandsbek",
    "asciiName": "Wandsbek",
    "lat": 53.5833,
    "lng": 10.0831,
    "population": 411422,
    "country": "DE"
  },
  {
    "name": "Minneapolis",
    "asciiName": "Minneapolis",
    "lat": 44.98,
    "lng": -93.2638,
    "population": 410939,
    "country": "US"
  },
  {
    "name": "Yokosuka",
    "asciiName": "Yokosuka",
    "lat": 35.2836,
    "lng": 139.6672,
    "population": 409478,
    "country": "JP"
  },
  {
    "name": "Nagasaki",
    "asciiName": "Nagasaki",
    "lat": 32.75,
    "lng": 129.8833,
    "population": 409118,
    "country": "JP"
  },
  {
    "name": "Tonalá",
    "asciiName": "Tonala",
    "lat": 20.6226,
    "lng": -103.2417,
    "population": 408759,
    "country": "MX"
  },
  {
    "name": "Piracicaba",
    "asciiName": "Piracicaba",
    "lat": -22.7253,
    "lng": -47.6492,
    "population": 407252,
    "country": "BR"
  },
  {
    "name": "Hirakata",
    "asciiName": "Hirakata",
    "lat": 34.8135,
    "lng": 135.6491,
    "population": 406331,
    "country": "JP"
  },
  {
    "name": "Gifu",
    "asciiName": "Gifu",
    "lat": 35.4229,
    "lng": 136.7604,
    "population": 402557,
    "country": "JP"
  },
  {
    "name": "Caruaru",
    "asciiName": "Caruaru",
    "lat": -8.2833,
    "lng": -35.9761,
    "population": 402290,
    "country": "BR"
  },
  {
    "name": "Toyonaka",
    "asciiName": "Toyonaka",
    "lat": 34.7824,
    "lng": 135.4693,
    "population": 401558,
    "country": "JP"
  },
  {
    "name": "Miyazaki",
    "asciiName": "Miyazaki",
    "lat": 31.9167,
    "lng": 131.4167,
    "population": 401339,
    "country": "JP"
  },
  {
    "name": "Antofagasta",
    "asciiName": "Antofagasta",
    "lat": -23.6509,
    "lng": -70.3975,
    "population": 401096,
    "country": "CL"
  },
  {
    "name": "Sunshine Coast",
    "asciiName": "Sunshine Coast",
    "lat": -26.6568,
    "lng": 153.0796,
    "population": 398840,
    "country": "AU"
  },
  {
    "name": "Wichita",
    "asciiName": "Wichita",
    "lat": 37.6922,
    "lng": -97.3375,
    "population": 396119,
    "country": "US"
  },
  {
    "name": "Vila Velha",
    "asciiName": "Vila Velha",
    "lat": -20.3297,
    "lng": -40.2925,
    "population": 394930,
    "country": "BR"
  },
  {
    "name": "Bologna",
    "asciiName": "Bologna",
    "lat": 44.4938,
    "lng": 11.3387,
    "population": 394843,
    "country": "IT"
  },
  {
    "name": "Cazenga",
    "asciiName": "Cazenga",
    "lat": -8.838,
    "lng": 13.284,
    "population": 394170,
    "country": "AO"
  },
  {
    "name": "Diadema",
    "asciiName": "Diadema",
    "lat": -23.6861,
    "lng": -46.6228,
    "population": 393237,
    "country": "BR"
  },
  {
    "name": "Lobito",
    "asciiName": "Lobito",
    "lat": -12.3644,
    "lng": 13.536,
    "population": 393079,
    "country": "AO"
  },
  {
    "name": "Saurimo",
    "asciiName": "Saurimo",
    "lat": -9.6608,
    "lng": 20.3916,
    "population": 393000,
    "country": "AO"
  },
  {
    "name": "Bello",
    "asciiName": "Bello",
    "lat": 6.3373,
    "lng": -75.5579,
    "population": 392939,
    "country": "CO"
  },
  {
    "name": "Pasto",
    "asciiName": "Pasto",
    "lat": 1.2146,
    "lng": -77.2785,
    "population": 392930,
    "country": "CO"
  },
  {
    "name": "Santa Fe",
    "asciiName": "Santa Fe",
    "lat": -31.6488,
    "lng": -60.7087,
    "population": 391164,
    "country": "AR"
  },
  {
    "name": "Arlington",
    "asciiName": "Arlington",
    "lat": 32.7357,
    "lng": -97.1081,
    "population": 388125,
    "country": "US"
  },
  {
    "name": "Carapicuíba",
    "asciiName": "Carapicuiba",
    "lat": -23.5227,
    "lng": -46.835,
    "population": 386984,
    "country": "BR"
  },
  {
    "name": "Petrolina",
    "asciiName": "Petrolina",
    "lat": -9.3986,
    "lng": -40.5008,
    "population": 386791,
    "country": "BR"
  },
  {
    "name": "Ojo de Agua",
    "asciiName": "Ojo de Agua",
    "lat": 19.6803,
    "lng": -99.01,
    "population": 386290,
    "country": "MX"
  },
  {
    "name": "Bochum",
    "asciiName": "Bochum",
    "lat": 51.4817,
    "lng": 7.2165,
    "population": 385729,
    "country": "DE"
  },
  {
    "name": "Suita",
    "asciiName": "Suita",
    "lat": 34.7614,
    "lng": 135.5157,
    "population": 385567,
    "country": "JP"
  },
  {
    "name": "Benito Juárez",
    "asciiName": "Benito Juarez",
    "lat": 19.3727,
    "lng": -99.1564,
    "population": 385439,
    "country": "MX"
  },
  {
    "name": "Grajaú",
    "asciiName": "Grajau",
    "lat": -23.7698,
    "lng": -46.6711,
    "population": 384873,
    "country": "BR"
  },
  {
    "name": "Okazaki",
    "asciiName": "Okazaki",
    "lat": 34.95,
    "lng": 137.1667,
    "population": 384654,
    "country": "JP"
  },
  {
    "name": "Xico",
    "asciiName": "Xico",
    "lat": 19.2703,
    "lng": -98.9509,
    "population": 384327,
    "country": "MX"
  },
  {
    "name": "Iztacalco",
    "asciiName": "Iztacalco",
    "lat": 19.3953,
    "lng": -99.0978,
    "population": 384326,
    "country": "MX"
  },
  {
    "name": "Betim",
    "asciiName": "Betim",
    "lat": -19.9678,
    "lng": -44.1983,
    "population": 384000,
    "country": "BR"
  },
  {
    "name": "Las Palmas de Gran Canaria",
    "asciiName": "Las Palmas de Gran Canaria",
    "lat": 28.1018,
    "lng": -15.4157,
    "population": 383516,
    "country": "ES"
  },
  {
    "name": "Mazatlán",
    "asciiName": "Mazatlan",
    "lat": 23.2216,
    "lng": -106.4188,
    "population": 381583,
    "country": "MX"
  },
  {
    "name": "Caxias do Sul",
    "asciiName": "Caxias do Sul",
    "lat": -29.1681,
    "lng": -51.1794,
    "population": 381270,
    "country": "BR"
  },
  {
    "name": "Irapuato",
    "asciiName": "Irapuato",
    "lat": 20.671,
    "lng": -101.3558,
    "population": 380941,
    "country": "MX"
  },
  {
    "name": "Ichinomiya",
    "asciiName": "Ichinomiya",
    "lat": 35.3,
    "lng": 136.8,
    "population": 380073,
    "country": "JP"
  },
  {
    "name": "Bauru",
    "asciiName": "Bauru",
    "lat": -22.3147,
    "lng": -49.0606,
    "population": 379297,
    "country": "BR"
  },
  {
    "name": "Iquitos",
    "asciiName": "Iquitos",
    "lat": -3.7481,
    "lng": -73.2529,
    "population": 377609,
    "country": "PE"
  },
  {
    "name": "Toyohashi",
    "asciiName": "Toyohashi",
    "lat": 34.7667,
    "lng": 137.3833,
    "population": 377453,
    "country": "JP"
  },
  {
    "name": "Utrecht",
    "asciiName": "Utrecht",
    "lat": 52.0908,
    "lng": 5.1222,
    "population": 376435,
    "country": "NL"
  },
  {
    "name": "Minato",
    "asciiName": "Minato",
    "lat": 34.2152,
    "lng": 135.1501,
    "population": 375339,
    "country": "JP"
  },
  {
    "name": "Bakersfield",
    "asciiName": "Bakersfield",
    "lat": 35.3733,
    "lng": -119.0187,
    "population": 373640,
    "country": "US"
  },
  {
    "name": "Takasaki",
    "asciiName": "Takasaki",
    "lat": 36.3333,
    "lng": 139.0167,
    "population": 372973,
    "country": "JP"
  },
  {
    "name": "Miguel Hidalgo",
    "asciiName": "Miguel Hidalgo",
    "lat": 19.4341,
    "lng": -99.2002,
    "population": 372889,
    "country": "MX"
  },
  {
    "name": "Nagano",
    "asciiName": "Nagano",
    "lat": 36.65,
    "lng": 138.1833,
    "population": 372760,
    "country": "JP"
  },
  {
    "name": "Cardiff",
    "asciiName": "Cardiff",
    "lat": 51.48,
    "lng": -3.18,
    "population": 372089,
    "country": "GB"
  },
  {
    "name": "Itaquaquecetuba",
    "asciiName": "Itaquaquecetuba",
    "lat": -23.4861,
    "lng": -46.3483,
    "population": 369275,
    "country": "BR"
  },
  {
    "name": "Leicester",
    "asciiName": "Leicester",
    "lat": 52.6386,
    "lng": -1.1317,
    "population": 368600,
    "country": "GB"
  },
  {
    "name": "Canberra",
    "asciiName": "Canberra",
    "lat": -35.2835,
    "lng": 149.1281,
    "population": 367752,
    "country": "AU"
  },
  {
    "name": "Nara-shi",
    "asciiName": "Nara-shi",
    "lat": 34.685,
    "lng": 135.8048,
    "population": 367353,
    "country": "JP"
  },
  {
    "name": "Florence",
    "asciiName": "Florence",
    "lat": 43.7793,
    "lng": 11.2463,
    "population": 367150,
    "country": "IT"
  },
  {
    "name": "Olinda",
    "asciiName": "Olinda",
    "lat": -8.0089,
    "lng": -34.8553,
    "population": 366754,
    "country": "BR"
  },
  {
    "name": "Bradford",
    "asciiName": "Bradford",
    "lat": 53.7939,
    "lng": -1.7521,
    "population": 366187,
    "country": "GB"
  },
  {
    "name": "Cleveland",
    "asciiName": "Cleveland",
    "lat": 41.4995,
    "lng": -81.6954,
    "population": 365379,
    "country": "US"
  },
  {
    "name": "Etobicoke",
    "asciiName": "Etobicoke",
    "lat": 43.6442,
    "lng": -79.5698,
    "population": 365000,
    "country": "CA"
  },
  {
    "name": "Samba",
    "asciiName": "Samba",
    "lat": -8.88,
    "lng": 13.1962,
    "population": 364986,
    "country": "AO"
  },
  {
    "name": "New Orleans",
    "asciiName": "New Orleans",
    "lat": 29.9547,
    "lng": -90.0751,
    "population": 362701,
    "country": "US"
  },
  {
    "name": "Blumenau",
    "asciiName": "Blumenau",
    "lat": -26.9194,
    "lng": -49.0661,
    "population": 361855,
    "country": "BR"
  },
  {
    "name": "Wuppertal",
    "asciiName": "Wuppertal",
    "lat": 51.2563,
    "lng": 7.1482,
    "population": 360797,
    "country": "DE"
  },
  {
    "name": "Aurora",
    "asciiName": "Aurora",
    "lat": 39.7294,
    "lng": -104.8319,
    "population": 359407,
    "country": "US"
  },
  {
    "name": "Franca",
    "asciiName": "Franca",
    "lat": -20.5386,
    "lng": -47.4008,
    "population": 358539,
    "country": "BR"
  },
  {
    "name": "Neiva",
    "asciiName": "Neiva",
    "lat": 2.93,
    "lng": -75.2797,
    "population": 357392,
    "country": "CO"
  },
  {
    "name": "Iwaki",
    "asciiName": "Iwaki",
    "lat": 37.05,
    "lng": 140.8833,
    "population": 357309,
    "country": "JP"
  },
  {
    "name": "Tete",
    "asciiName": "Tete",
    "lat": -16.1564,
    "lng": 33.5867,
    "population": 357000,
    "country": "MZ"
  },
  {
    "name": "Wakayama",
    "asciiName": "Wakayama",
    "lat": 34.2333,
    "lng": 135.1667,
    "population": 356729,
    "country": "JP"
  },
  {
    "name": "Caucaia",
    "asciiName": "Caucaia",
    "lat": -3.7361,
    "lng": -38.6531,
    "population": 355679,
    "country": "BR"
  },
  {
    "name": "Cuíto",
    "asciiName": "Cuito",
    "lat": -12.3833,
    "lng": 16.9333,
    "population": 355423,
    "country": "AO"
  },
  {
    "name": "Benito Juarez",
    "asciiName": "Benito Juarez",
    "lat": 19.3984,
    "lng": -99.1577,
    "population": 355017,
    "country": "MX"
  },
  {
    "name": "Kawagoe",
    "asciiName": "Kawagoe",
    "lat": 35.9086,
    "lng": 139.4853,
    "population": 354571,
    "country": "JP"
  },
  {
    "name": "Takatsuki",
    "asciiName": "Takatsuki",
    "lat": 34.8483,
    "lng": 135.6168,
    "population": 354468,
    "country": "JP"
  },
  {
    "name": "Tapachula",
    "asciiName": "Tapachula",
    "lat": 14.9054,
    "lng": -92.2589,
    "population": 353706,
    "country": "MX"
  },
  {
    "name": "Villahermosa",
    "asciiName": "Villahermosa",
    "lat": 17.9862,
    "lng": -92.9393,
    "population": 353577,
    "country": "MX"
  },
  {
    "name": "Cariacica",
    "asciiName": "Cariacica",
    "lat": -20.2639,
    "lng": -40.42,
    "population": 353491,
    "country": "BR"
  },
  {
    "name": "Honolulu",
    "asciiName": "Honolulu",
    "lat": 21.3069,
    "lng": -157.8583,
    "population": 350964,
    "country": "US"
  },
  {
    "name": "Anaheim",
    "asciiName": "Anaheim",
    "lat": 33.8353,
    "lng": -117.9145,
    "population": 350742,
    "country": "US"
  },
  {
    "name": "Praia Grande",
    "asciiName": "Praia Grande",
    "lat": -24.0058,
    "lng": -46.4028,
    "population": 349935,
    "country": "BR"
  },
  {
    "name": "Quelimane",
    "asciiName": "Quelimane",
    "lat": -17.8786,
    "lng": 36.8883,
    "population": 349842,
    "country": "MZ"
  },
  {
    "name": "Shinjuku",
    "asciiName": "Shinjuku",
    "lat": 35.6912,
    "lng": 139.7085,
    "population": 349385,
    "country": "JP"
  },
  {
    "name": "Campina Grande",
    "asciiName": "Campina Grande",
    "lat": -7.2306,
    "lng": -35.8811,
    "population": 348936,
    "country": "BR"
  },
  {
    "name": "Alicante",
    "asciiName": "Alicante",
    "lat": 38.3452,
    "lng": -0.4815,
    "population": 348901,
    "country": "ES"
  },
  {
    "name": "Belfast",
    "asciiName": "Belfast",
    "lat": 54.5968,
    "lng": -5.9254,
    "population": 348005,
    "country": "GB"
  },
  {
    "name": "Bilbao",
    "asciiName": "Bilbao",
    "lat": 43.2627,
    "lng": -2.9253,
    "population": 347342,
    "country": "ES"
  },
  {
    "name": "Central Coast",
    "asciiName": "Central Coast",
    "lat": -33.4298,
    "lng": 151.3714,
    "population": 346596,
    "country": "AU"
  },
  {
    "name": "Corrientes",
    "asciiName": "Corrientes",
    "lat": -27.4678,
    "lng": -58.8344,
    "population": 346334,
    "country": "AR"
  },
  {
    "name": "Koshigaya",
    "asciiName": "Koshigaya",
    "lat": 35.8904,
    "lng": 139.7892,
    "population": 345353,
    "country": "JP"
  },
  {
    "name": "Coventry",
    "asciiName": "Coventry",
    "lat": 52.4066,
    "lng": -1.5122,
    "population": 345324,
    "country": "GB"
  },
  {
    "name": "Logan City",
    "asciiName": "Logan City",
    "lat": -27.6392,
    "lng": 153.1094,
    "population": 345098,
    "country": "AU"
  },
  {
    "name": "Ōtsu",
    "asciiName": "Otsu",
    "lat": 35,
    "lng": 135.8667,
    "population": 345070,
    "country": "JP"
  },
  {
    "name": "Nakano",
    "asciiName": "Nakano",
    "lat": 35.7045,
    "lng": 139.6695,
    "population": 344880,
    "country": "JP"
  },
  {
    "name": "Tokorozawa",
    "asciiName": "Tokorozawa",
    "lat": 35.7992,
    "lng": 139.469,
    "population": 344194,
    "country": "JP"
  },
  {
    "name": "Nice",
    "asciiName": "Nice",
    "lat": 43.7031,
    "lng": 7.2661,
    "population": 342669,
    "country": "FR"
  },
  {
    "name": "Soledad",
    "asciiName": "Soledad",
    "lat": 10.9184,
    "lng": -74.7646,
    "population": 342556,
    "country": "CO"
  },
  {
    "name": "Paulista",
    "asciiName": "Paulista",
    "lat": -7.9408,
    "lng": -34.8731,
    "population": 342167,
    "country": "BR"
  },
  {
    "name": "Celaya",
    "asciiName": "Celaya",
    "lat": 20.5218,
    "lng": -100.814,
    "population": 340387,
    "country": "MX"
  },
  {
    "name": "West Raleigh",
    "asciiName": "West Raleigh",
    "lat": 35.7868,
    "lng": -78.6639,
    "population": 338759,
    "country": "US"
  },
  {
    "name": "Cuernavaca",
    "asciiName": "Cuernavaca",
    "lat": 18.9261,
    "lng": -99.2307,
    "population": 338650,
    "country": "MX"
  },
  {
    "name": "Markham",
    "asciiName": "Markham",
    "lat": 43.8668,
    "lng": -79.2663,
    "population": 338503,
    "country": "CA"
  },
  {
    "name": "Uberaba",
    "asciiName": "Uberaba",
    "lat": -19.7483,
    "lng": -47.9319,
    "population": 337836,
    "country": "BR"
  },
  {
    "name": "Orlando",
    "asciiName": "Orlando",
    "lat": 28.5383,
    "lng": -81.3792,
    "population": 334854,
    "country": "US"
  },
  {
    "name": "Viña del Mar",
    "asciiName": "Vina del Mar",
    "lat": -33.0246,
    "lng": -71.5518,
    "population": 334248,
    "country": "CL"
  },
  {
    "name": "Asahikawa",
    "asciiName": "Asahikawa",
    "lat": 43.7706,
    "lng": 142.3649,
    "population": 333530,
    "country": "JP"
  },
  {
    "name": "Tepic",
    "asciiName": "Tepic",
    "lat": 21.5073,
    "lng": -104.8933,
    "population": 332863,
    "country": "MX"
  },
  {
    "name": "Maebashi",
    "asciiName": "Maebashi",
    "lat": 36.4,
    "lng": 139.0833,
    "population": 332149,
    "country": "JP"
  },
  {
    "name": "Kita",
    "asciiName": "Kita",
    "lat": 35.7526,
    "lng": 139.7335,
    "population": 332140,
    "country": "JP"
  },
  {
    "name": "Ciudad Victoria",
    "asciiName": "Ciudad Victoria",
    "lat": 23.7406,
    "lng": -99.1436,
    "population": 332100,
    "country": "MX"
  },
  {
    "name": "Soledad de Graciano Sánchez",
    "asciiName": "Soledad de Graciano Sanchez",
    "lat": 22.1891,
    "lng": -100.9379,
    "population": 332072,
    "country": "MX"
  },
  {
    "name": "Kochi",
    "asciiName": "Kochi",
    "lat": 33.55,
    "lng": 133.5333,
    "population": 332059,
    "country": "JP"
  },
  {
    "name": "Bielefeld",
    "asciiName": "Bielefeld",
    "lat": 52.0333,
    "lng": 8.5333,
    "population": 331906,
    "country": "DE"
  },
  {
    "name": "Bonn",
    "asciiName": "Bonn",
    "lat": 50.7344,
    "lng": 7.0955,
    "population": 330579,
    "country": "DE"
  },
  {
    "name": "São Vicente",
    "asciiName": "Sao Vicente",
    "lat": -23.9631,
    "lng": -46.3919,
    "population": 329911,
    "country": "BR"
  },
  {
    "name": "Ribeirão das Neves",
    "asciiName": "Ribeirao das Neves",
    "lat": -19.7669,
    "lng": -44.0867,
    "population": 329794,
    "country": "BR"
  },
  {
    "name": "São José dos Pinhais",
    "asciiName": "Sao Jose dos Pinhais",
    "lat": -25.5302,
    "lng": -49.2084,
    "population": 329628,
    "country": "BR"
  },
  {
    "name": "Ciudad Obregón",
    "asciiName": "Ciudad Obregon",
    "lat": 27.4864,
    "lng": -109.9408,
    "population": 329404,
    "country": "MX"
  },
  {
    "name": "Brent",
    "asciiName": "Brent",
    "lat": 51.5531,
    "lng": -0.3023,
    "population": 329100,
    "country": "GB"
  },
  {
    "name": "Canoas",
    "asciiName": "Canoas",
    "lat": -29.9178,
    "lng": -51.1836,
    "population": 328291,
    "country": "BR"
  },
  {
    "name": "Pucallpa",
    "asciiName": "Pucallpa",
    "lat": -8.3791,
    "lng": -74.5539,
    "population": 326040,
    "country": "PE"
  },
  {
    "name": "Mogi das Cruzes",
    "asciiName": "Mogi das Cruzes",
    "lat": -23.5228,
    "lng": -46.1883,
    "population": 325746,
    "country": "BR"
  },
  {
    "name": "Córdoba",
    "asciiName": "Cordoba",
    "lat": 37.8916,
    "lng": -4.7727,
    "population": 325708,
    "country": "ES"
  },
  {
    "name": "Birkenhead",
    "asciiName": "Birkenhead",
    "lat": 53.3934,
    "lng": -3.0148,
    "population": 325264,
    "country": "GB"
  },
  {
    "name": "Nantes",
    "asciiName": "Nantes",
    "lat": 47.2173,
    "lng": -1.5534,
    "population": 325070,
    "country": "FR"
  },
  {
    "name": "Nottingham",
    "asciiName": "Nottingham",
    "lat": 52.9536,
    "lng": -1.1505,
    "population": 323632,
    "country": "GB"
  },
  {
    "name": "Ramiros",
    "asciiName": "Ramiros",
    "lat": -9.0626,
    "lng": 13.0456,
    "population": 323576,
    "country": "AO"
  },
  {
    "name": "Vaughan",
    "asciiName": "Vaughan",
    "lat": 43.8361,
    "lng": -79.4983,
    "population": 323103,
    "country": "CA"
  },
  {
    "name": "Guarujá",
    "asciiName": "Guaruja",
    "lat": -23.9931,
    "lng": -46.2564,
    "population": 322750,
    "country": "BR"
  },
  {
    "name": "Uíge",
    "asciiName": "Uige",
    "lat": -7.6087,
    "lng": 15.0613,
    "population": 322531,
    "country": "AO"
  },
  {
    "name": "Ixtapaluca",
    "asciiName": "Ixtapaluca",
    "lat": 19.3156,
    "lng": -98.8828,
    "population": 322271,
    "country": "MX"
  },
  {
    "name": "Villavicencio",
    "asciiName": "Villavicencio",
    "lat": 4.1324,
    "lng": -73.6256,
    "population": 321717,
    "country": "CO"
  },
  {
    "name": "Lexington",
    "asciiName": "Lexington",
    "lat": 37.9887,
    "lng": -84.4777,
    "population": 320347,
    "country": "US"
  },
  {
    "name": "Islington",
    "asciiName": "Islington",
    "lat": 51.5362,
    "lng": -0.103,
    "population": 319143,
    "country": "GB"
  },
  {
    "name": "Marne La Vallée",
    "asciiName": "Marne La Vallee",
    "lat": 48.8358,
    "lng": 2.6424,
    "population": 318325,
    "country": "FR"
  },
  {
    "name": "Popayán",
    "asciiName": "Popayan",
    "lat": 2.4382,
    "lng": -76.6132,
    "population": 318059,
    "country": "CO"
  },
  {
    "name": "Reading",
    "asciiName": "Reading",
    "lat": 51.4563,
    "lng": -0.9711,
    "population": 318014,
    "country": "GB"
  },
  {
    "name": "Riverside",
    "asciiName": "Riverside",
    "lat": 33.9534,
    "lng": -117.3962,
    "population": 317261,
    "country": "US"
  },
  {
    "name": "Chimbote",
    "asciiName": "Chimbote",
    "lat": -9.0751,
    "lng": -78.5937,
    "population": 316966,
    "country": "PE"
  },
  {
    "name": "Bari",
    "asciiName": "Bari",
    "lat": 41.1207,
    "lng": 16.8698,
    "population": 316491,
    "country": "IT"
  },
  {
    "name": "Corpus Christi",
    "asciiName": "Corpus Christi",
    "lat": 27.8006,
    "lng": -97.3964,
    "population": 316239,
    "country": "US"
  },
  {
    "name": "Hamburg-Nord",
    "asciiName": "Hamburg-Nord",
    "lat": 53.5894,
    "lng": 9.984,
    "population": 315514,
    "country": "DE"
  },
  {
    "name": "Lexington-Fayette",
    "asciiName": "Lexington-Fayette",
    "lat": 38.0498,
    "lng": -84.4585,
    "population": 314488,
    "country": "US"
  },
  {
    "name": "Kingston upon Hull",
    "asciiName": "Kingston upon Hull",
    "lat": 53.7446,
    "lng": -0.3352,
    "population": 314018,
    "country": "GB"
  },
  {
    "name": "Preston",
    "asciiName": "Preston",
    "lat": 53.7628,
    "lng": -2.7045,
    "population": 313332,
    "country": "GB"
  },
  {
    "name": "Palmira",
    "asciiName": "Palmira",
    "lat": 3.5394,
    "lng": -76.3036,
    "population": 312519,
    "country": "CO"
  },
  {
    "name": "Catania",
    "asciiName": "Catania",
    "lat": 37.4922,
    "lng": 15.0704,
    "population": 311584,
    "country": "IT"
  },
  {
    "name": "Cincinnati",
    "asciiName": "Cincinnati",
    "lat": 39.1271,
    "lng": -84.5144,
    "population": 311097,
    "country": "US"
  },
  {
    "name": "Coatzacoalcos",
    "asciiName": "Coatzacoalcos",
    "lat": 18.1491,
    "lng": -94.4447,
    "population": 310698,
    "country": "MX"
  },
  {
    "name": "Santa Ana",
    "asciiName": "Santa Ana",
    "lat": 33.7456,
    "lng": -117.8678,
    "population": 310227,
    "country": "US"
  },
  {
    "name": "Tampico",
    "asciiName": "Tampico",
    "lat": 22.2852,
    "lng": -97.8778,
    "population": 309003,
    "country": "MX"
  },
  {
    "name": "Ciudad Benito Juárez",
    "asciiName": "Ciudad Benito Juarez",
    "lat": 25.6466,
    "lng": -100.0914,
    "population": 308285,
    "country": "MX"
  },
  {
    "name": "Münster",
    "asciiName": "Muenster",
    "lat": 51.9624,
    "lng": 7.6257,
    "population": 308258,
    "country": "DE"
  },
  {
    "name": "Mannheim",
    "asciiName": "Mannheim",
    "lat": 49.4891,
    "lng": 8.4669,
    "population": 307960,
    "country": "DE"
  },
  {
    "name": "Posadas",
    "asciiName": "Posadas",
    "lat": -27.3918,
    "lng": -55.9238,
    "population": 305874,
    "country": "AR"
  },
  {
    "name": "Stockton",
    "asciiName": "Stockton",
    "lat": 37.9577,
    "lng": -121.2908,
    "population": 305658,
    "country": "US"
  },
  {
    "name": "Tláhuac",
    "asciiName": "Tlahuac",
    "lat": 19.2869,
    "lng": -99.0051,
    "population": 305076,
    "country": "MX"
  },
  {
    "name": "Pittsburgh",
    "asciiName": "Pittsburgh",
    "lat": 40.4406,
    "lng": -79.9959,
    "population": 304391,
    "country": "US"
  },
  {
    "name": "Armenia",
    "asciiName": "Armenia",
    "lat": 4.5366,
    "lng": -75.6726,
    "population": 304314,
    "country": "CO"
  },
  {
    "name": "Santa Catarina",
    "asciiName": "Santa Catarina",
    "lat": 25.6733,
    "lng": -100.4581,
    "population": 304052,
    "country": "MX"
  },
  {
    "name": "Saint Paul",
    "asciiName": "Saint Paul",
    "lat": 44.9444,
    "lng": -93.0933,
    "population": 303176,
    "country": "US"
  },
  {
    "name": "Ciudad del Este",
    "asciiName": "Ciudad del Este",
    "lat": -25.5036,
    "lng": -54.6507,
    "population": 301815,
    "country": "PY"
  },
  {
    "name": "Hamburg-Mitte",
    "asciiName": "Hamburg-Mitte",
    "lat": 53.55,
    "lng": 10.0167,
    "population": 301231,
    "country": "DE"
  },
  {
    "name": "Augsburg",
    "asciiName": "Augsburg",
    "lat": 48.3715,
    "lng": 10.8985,
    "population": 301105,
    "country": "DE"
  },
  {
    "name": "South Dublin",
    "asciiName": "South Dublin",
    "lat": 53.2903,
    "lng": -6.3415,
    "population": 301075,
    "country": "IE"
  },
  {
    "name": "Valladolid",
    "asciiName": "Valladolid",
    "lat": 41.6554,
    "lng": -4.7235,
    "population": 300618,
    "country": "ES"
  },
  {
    "name": "Swansea",
    "asciiName": "Swansea",
    "lat": 51.6208,
    "lng": -3.9432,
    "population": 300352,
    "country": "GB"
  },
  {
    "name": "Newcastle upon Tyne",
    "asciiName": "Newcastle upon Tyne",
    "lat": 54.9733,
    "lng": -1.614,
    "population": 300125,
    "country": "GB"
  },
  {
    "name": "Gatineau",
    "asciiName": "Gatineau",
    "lat": 45.4772,
    "lng": -75.7016,
    "population": 300045,
    "country": "CA"
  },
  {
    "name": "Uruapan",
    "asciiName": "Uruapan",
    "lat": 19.4168,
    "lng": -102.0584,
    "population": 299523,
    "country": "MX"
  },
  {
    "name": "Bahía Blanca",
    "asciiName": "Bahia Blanca",
    "lat": -38.7176,
    "lng": -62.2654,
    "population": 299101,
    "country": "AR"
  },
  {
    "name": "Southend-on-Sea",
    "asciiName": "Southend-on-Sea",
    "lat": 51.5378,
    "lng": 0.7143,
    "population": 295310,
    "country": "GB"
  },
  {
    "name": "Lincoln",
    "asciiName": "Lincoln",
    "lat": 40.8,
    "lng": -96.667,
    "population": 294757,
    "country": "US"
  },
  {
    "name": "Vigo",
    "asciiName": "Vigo",
    "lat": 42.2328,
    "lng": -8.7226,
    "population": 293642,
    "country": "ES"
  },
  {
    "name": "Cholula",
    "asciiName": "Cholula",
    "lat": 19.0641,
    "lng": -98.3035,
    "population": 292881,
    "country": "MX"
  },
  {
    "name": "Resistencia",
    "asciiName": "Resistencia",
    "lat": -27.4636,
    "lng": -58.9866,
    "population": 290793,
    "country": "AR"
  },
  {
    "name": "Victoria",
    "asciiName": "Victoria",
    "lat": 48.4359,
    "lng": -123.3515,
    "population": 289625,
    "country": "CA"
  },
  {
    "name": "Anchorage",
    "asciiName": "Anchorage",
    "lat": 61.2181,
    "lng": -149.9003,
    "population": 289600,
    "country": "US"
  },
  {
    "name": "Wiesbaden",
    "asciiName": "Wiesbaden",
    "lat": 50.086,
    "lng": 8.2444,
    "population": 288850,
    "country": "DE"
  },
  {
    "name": "Meads",
    "asciiName": "Meads",
    "lat": 38.4126,
    "lng": -82.709,
    "population": 288649,
    "country": "US"
  },
  {
    "name": "Marienthal",
    "asciiName": "Marienthal",
    "lat": 53.5667,
    "lng": 10.0833,
    "population": 287101,
    "country": "DE"
  },
  {
    "name": "Tacna",
    "asciiName": "Tacna",
    "lat": -18.0146,
    "lng": -70.2536,
    "population": 286240,
    "country": "PE"
  },
  {
    "name": "Henderson",
    "asciiName": "Henderson",
    "lat": 36.0397,
    "lng": -114.9819,
    "population": 285667,
    "country": "US"
  },
  {
    "name": "Greensboro",
    "asciiName": "Greensboro",
    "lat": 36.0726,
    "lng": -79.792,
    "population": 285342,
    "country": "US"
  },
  {
    "name": "Brighton",
    "asciiName": "Brighton",
    "lat": 50.8284,
    "lng": -0.1395,
    "population": 283870,
    "country": "GB"
  },
  {
    "name": "Karlsruhe",
    "asciiName": "Karlsruhe",
    "lat": 49.0094,
    "lng": 8.4044,
    "population": 283799,
    "country": "DE"
  },
  {
    "name": "Plano",
    "asciiName": "Plano",
    "lat": 33.0198,
    "lng": -96.6989,
    "population": 283558,
    "country": "US"
  },
  {
    "name": "Geelong",
    "asciiName": "Geelong",
    "lat": -38.1471,
    "lng": 144.3607,
    "population": 282809,
    "country": "AU"
  },
  {
    "name": "Valparaíso",
    "asciiName": "Valparaiso",
    "lat": -33.036,
    "lng": -71.6296,
    "population": 282448,
    "country": "CL"
  },
  {
    "name": "Ica",
    "asciiName": "Ica",
    "lat": -14.0754,
    "lng": -75.7342,
    "population": 282407,
    "country": "PE"
  },
  {
    "name": "Itagüí",
    "asciiName": "Itaguei",
    "lat": 6.1846,
    "lng": -75.5991,
    "population": 281853,
    "country": "CO"
  },
  {
    "name": "Nicolás Romero",
    "asciiName": "Nicolas Romero",
    "lat": 19.6418,
    "lng": -99.3068,
    "population": 281799,
    "country": "MX"
  },
  {
    "name": "Lichinga",
    "asciiName": "Lichinga",
    "lat": -13.3128,
    "lng": 35.2406,
    "population": 281341,
    "country": "MZ"
  },
  {
    "name": "Zumpango",
    "asciiName": "Zumpango",
    "lat": 19.7967,
    "lng": -99.0995,
    "population": 280455,
    "country": "MX"
  },
  {
    "name": "Wollongong",
    "asciiName": "Wollongong",
    "lat": -34.424,
    "lng": 150.8935,
    "population": 280153,
    "country": "AU"
  },
  {
    "name": "Coacalco",
    "asciiName": "Coacalco",
    "lat": 19.6292,
    "lng": -99.1069,
    "population": 277959,
    "country": "MX"
  },
  {
    "name": "Sincelejo",
    "asciiName": "Sincelejo",
    "lat": 9.3045,
    "lng": -75.3905,
    "population": 277773,
    "country": "CO"
  },
  {
    "name": "Strasbourg",
    "asciiName": "Strasbourg",
    "lat": 48.5839,
    "lng": 7.7455,
    "population": 274845,
    "country": "FR"
  },
  {
    "name": "Luena",
    "asciiName": "Luena",
    "lat": -11.7833,
    "lng": 19.9167,
    "population": 273675,
    "country": "AO"
  },
  {
    "name": "Gijón",
    "asciiName": "Gijon",
    "lat": 43.5357,
    "lng": -5.6615,
    "population": 271780,
    "country": "ES"
  },
  {
    "name": "Derby",
    "asciiName": "Derby",
    "lat": 52.9228,
    "lng": -1.4766,
    "population": 270468,
    "country": "GB"
  },
  {
    "name": "Gelsenkirchen",
    "asciiName": "Gelsenkirchen",
    "lat": 51.5051,
    "lng": 7.0965,
    "population": 270028,
    "country": "DE"
  },
  {
    "name": "Southampton",
    "asciiName": "Southampton",
    "lat": 50.904,
    "lng": -1.4043,
    "population": 269781,
    "country": "GB"
  },
  {
    "name": "Eimsbüttel",
    "asciiName": "Eimsbuettel",
    "lat": 53.5742,
    "lng": 9.9568,
    "population": 269118,
    "country": "DE"
  },
  {
    "name": "Merlo",
    "asciiName": "Merlo",
    "lat": -34.6654,
    "lng": -58.7274,
    "population": 268961,
    "country": "AR"
  },
  {
    "name": "Floridablanca",
    "asciiName": "Floridablanca",
    "lat": 7.0622,
    "lng": -73.0864,
    "population": 267591,
    "country": "CO"
  },
  {
    "name": "Eixample",
    "asciiName": "Eixample",
    "lat": 41.389,
    "lng": 2.1618,
    "population": 266477,
    "country": "ES"
  },
  {
    "name": "Saskatoon",
    "asciiName": "Saskatoon",
    "lat": 52.1324,
    "lng": -106.6689,
    "population": 266141,
    "country": "CA"
  },
  {
    "name": "Bordeaux",
    "asciiName": "Bordeaux",
    "lat": 44.8412,
    "lng": -0.5805,
    "population": 265328,
    "country": "FR"
  },
  {
    "name": "Aachen",
    "asciiName": "Aachen",
    "lat": 50.7766,
    "lng": 6.0834,
    "population": 265208,
    "country": "DE"
  },
  {
    "name": "Nogales",
    "asciiName": "Nogales",
    "lat": 31.3086,
    "lng": -110.9422,
    "population": 264782,
    "country": "MX"
  },
  {
    "name": "Wolverhampton",
    "asciiName": "Wolverhampton",
    "lat": 52.5855,
    "lng": -2.123,
    "population": 263700,
    "country": "GB"
  },
  {
    "name": "Quilmes",
    "asciiName": "Quilmes",
    "lat": -34.7206,
    "lng": -58.2545,
    "population": 262379,
    "country": "AR"
  },
  {
    "name": "Mönchengladbach",
    "asciiName": "Moenchengladbach",
    "lat": 51.1854,
    "lng": 6.4417,
    "population": 261742,
    "country": "DE"
  },
  {
    "name": "Plymouth",
    "asciiName": "Plymouth",
    "lat": 50.3715,
    "lng": -4.143,
    "population": 260203,
    "country": "GB"
  },
  {
    "name": "Stoke-on-Trent",
    "asciiName": "Stoke-on-Trent",
    "lat": 53.0042,
    "lng": -2.1854,
    "population": 258366,
    "country": "GB"
  },
  {
    "name": "Verona",
    "asciiName": "Verona",
    "lat": 45.4385,
    "lng": 10.9938,
    "population": 258031,
    "country": "IT"
  },
  {
    "name": "San Salvador de Jujuy",
    "asciiName": "San Salvador de Jujuy",
    "lat": -24.1928,
    "lng": -65.2934,
    "population": 257970,
    "country": "AR"
  },
  {
    "name": "Gasteiz / Vitoria",
    "asciiName": "Gasteiz / Vitoria",
    "lat": 42.85,
    "lng": -2.6727,
    "population": 257407,
    "country": "ES"
  },
  {
    "name": "Gómez Palacio",
    "asciiName": "Gomez Palacio",
    "lat": 25.5687,
    "lng": -103.4996,
    "population": 257352,
    "country": "MX"
  },
  {
    "name": "L'Hospitalet de Llobregat",
    "asciiName": "L'Hospitalet de Llobregat",
    "lat": 41.3597,
    "lng": 2.1003,
    "population": 257038,
    "country": "ES"
  },
  {
    "name": "Kitchener",
    "asciiName": "Kitchener",
    "lat": 43.4254,
    "lng": -80.5112,
    "population": 256885,
    "country": "CA"
  },
  {
    "name": "Latina",
    "asciiName": "Latina",
    "lat": 40.389,
    "lng": -3.7457,
    "population": 256644,
    "country": "ES"
  },
  {
    "name": "Milton Keynes",
    "asciiName": "Milton Keynes",
    "lat": 52.0417,
    "lng": -0.7558,
    "population": 256385,
    "country": "GB"
  },
  {
    "name": "Vila Flor",
    "asciiName": "Vila Flor",
    "lat": -8.9801,
    "lng": 13.3078,
    "population": 256066,
    "country": "AO"
  },
  {
    "name": "Ñuñoa",
    "asciiName": "Nunoa",
    "lat": -33.4473,
    "lng": -70.5828,
    "population": 255823,
    "country": "CL"
  },
  {
    "name": "Mossamedes",
    "asciiName": "Mossamedes",
    "lat": -15.1961,
    "lng": 12.1522,
    "population": 255000,
    "country": "AO"
  },
  {
    "name": "Hobart",
    "asciiName": "Hobart",
    "lat": -42.8794,
    "lng": 147.3294,
    "population": 254930,
    "country": "AU"
  },
  {
    "name": "Carabanchel",
    "asciiName": "Carabanchel",
    "lat": 40.3909,
    "lng": -3.7242,
    "population": 253678,
    "country": "ES"
  },
  {
    "name": "Porto",
    "asciiName": "Porto",
    "lat": 41.1485,
    "lng": -8.611,
    "population": 252687,
    "country": "PT"
  },
  {
    "name": "Kiel",
    "asciiName": "Kiel",
    "lat": 54.3213,
    "lng": 10.1349,
    "population": 252668,
    "country": "DE"
  },
  {
    "name": "Santiago del Estero",
    "asciiName": "Santiago del Estero",
    "lat": -27.8005,
    "lng": -64.2628,
    "population": 252192,
    "country": "AR"
  },
  {
    "name": "Santiago de Surco",
    "asciiName": "Santiago de Surco",
    "lat": -12.1359,
    "lng": -77.0074,
    "population": 251648,
    "country": "PE"
  },
  {
    "name": "Menongue",
    "asciiName": "Menongue",
    "lat": -14.6585,
    "lng": 17.691,
    "population": 251178,
    "country": "AO"
  },
  {
    "name": "A Coruña",
    "asciiName": "A Coruna",
    "lat": 43.3714,
    "lng": -8.396,
    "population": 250438,
    "country": "ES"
  },
  {
    "name": "Altona",
    "asciiName": "Altona",
    "lat": 53.55,
    "lng": 9.9333,
    "population": 250192,
    "country": "DE"
  },
  {
    "name": "San Bernardo",
    "asciiName": "San Bernardo",
    "lat": -33.5922,
    "lng": -70.6996,
    "population": 249858,
    "country": "CL"
  },
  {
    "name": "Burnaby",
    "asciiName": "Burnaby",
    "lat": 49.2664,
    "lng": -122.9526,
    "population": 249125,
    "country": "CA"
  },
  {
    "name": "Montpellier",
    "asciiName": "Montpellier",
    "lat": 43.6109,
    "lng": 3.8764,
    "population": 248252,
    "country": "FR"
  },
  {
    "name": "City of Westminster",
    "asciiName": "City of Westminster",
    "lat": 51.4975,
    "lng": -0.1357,
    "population": 247614,
    "country": "GB"
  },
  {
    "name": "Chemnitz",
    "asciiName": "Chemnitz",
    "lat": 50.8357,
    "lng": 12.9292,
    "population": 247220,
    "country": "DE"
  },
  {
    "name": "Paraná",
    "asciiName": "Parana",
    "lat": -31.7327,
    "lng": -60.529,
    "population": 247139,
    "country": "AR"
  },
  {
    "name": "Chitato",
    "asciiName": "Chitato",
    "lat": -7.3,
    "lng": 20.7333,
    "population": 246880,
    "country": "AO"
  },
  {
    "name": "Puerto Montt",
    "asciiName": "Puerto Montt",
    "lat": -41.4693,
    "lng": -72.9424,
    "population": 245902,
    "country": "CL"
  },
  {
    "name": "Northampton",
    "asciiName": "Northampton",
    "lat": 52.25,
    "lng": -0.8833,
    "population": 245899,
    "country": "GB"
  },
  {
    "name": "Juliaca",
    "asciiName": "Juliaca",
    "lat": -15.5,
    "lng": -70.1333,
    "population": 245675,
    "country": "PE"
  },
  {
    "name": "Groningen",
    "asciiName": "Groningen",
    "lat": 53.2192,
    "lng": 6.5667,
    "population": 244807,
    "country": "NL"
  },
  {
    "name": "Braunschweig",
    "asciiName": "Braunschweig",
    "lat": 52.2659,
    "lng": 10.5267,
    "population": 244715,
    "country": "DE"
  },
  {
    "name": "Magdeburg",
    "asciiName": "Magdeburg",
    "lat": 52.1313,
    "lng": 11.6319,
    "population": 244329,
    "country": "DE"
  },
  {
    "name": "Puente de Vallecas",
    "asciiName": "Puente de Vallecas",
    "lat": 40.3935,
    "lng": -3.662,
    "population": 244151,
    "country": "ES"
  },
  {
    "name": "Arica",
    "asciiName": "Arica",
    "lat": -18.4755,
    "lng": -70.3006,
    "population": 241653,
    "country": "CL"
  },
  {
    "name": "Peñalolén",
    "asciiName": "Penalolen",
    "lat": -33.4684,
    "lng": -70.5341,
    "population": 241599,
    "country": "CL"
  },
  {
    "name": "Buenaventura",
    "asciiName": "Buenaventura",
    "lat": 3.8801,
    "lng": -77.0312,
    "population": 240387,
    "country": "CO"
  },
  {
    "name": "Navegantes",
    "asciiName": "Navegantes",
    "lat": -12.59,
    "lng": 13.3912,
    "population": 240075,
    "country": "AO"
  },
  {
    "name": "Nacala",
    "asciiName": "Nacala",
    "lat": -14.5626,
    "lng": 40.6854,
    "population": 239808,
    "country": "MZ"
  },
  {
    "name": "Fuencarral",
    "asciiName": "Fuencarral",
    "lat": 40.5,
    "lng": -3.6833,
    "population": 238765,
    "country": "ES"
  },
  {
    "name": "Lille",
    "asciiName": "Lille",
    "lat": 50.6339,
    "lng": 3.0551,
    "population": 238695,
    "country": "FR"
  },
  {
    "name": "Temuco",
    "asciiName": "Temuco",
    "lat": -38.7363,
    "lng": -72.5974,
    "population": 238129,
    "country": "CL"
  },
  {
    "name": "Krefeld",
    "asciiName": "Krefeld",
    "lat": 51.3365,
    "lng": 6.5538,
    "population": 237984,
    "country": "DE"
  },
  {
    "name": "Halle (Saale)",
    "asciiName": "Halle (Saale)",
    "lat": 51.4816,
    "lng": 11.9795,
    "population": 237865,
    "country": "DE"
  },
  {
    "name": "Kilamba",
    "asciiName": "Kilamba",
    "lat": -8.8486,
    "lng": 13.275,
    "population": 237528,
    "country": "AO"
  },
  {
    "name": "Freiburg",
    "asciiName": "Freiburg",
    "lat": 47.9959,
    "lng": 7.8522,
    "population": 237460,
    "country": "DE"
  },
  {
    "name": "Oldham",
    "asciiName": "Oldham",
    "lat": 53.5405,
    "lng": -2.1183,
    "population": 237110,
    "country": "GB"
  },
  {
    "name": "Sant Martí",
    "asciiName": "Sant Marti",
    "lat": 41.4181,
    "lng": 2.1993,
    "population": 235719,
    "country": "ES"
  },
  {
    "name": "Eindhoven",
    "asciiName": "Eindhoven",
    "lat": 51.4408,
    "lng": 5.4778,
    "population": 235691,
    "country": "NL"
  },
  {
    "name": "Elche",
    "asciiName": "Elche",
    "lat": 38.2622,
    "lng": -0.7011,
    "population": 234765,
    "country": "ES"
  },
  {
    "name": "Granada",
    "asciiName": "Granada",
    "lat": 37.1882,
    "lng": -3.6067,
    "population": 233532,
    "country": "ES"
  },
  {
    "name": "Pemba",
    "asciiName": "Pemba",
    "lat": -12.9739,
    "lng": 40.5178,
    "population": 232932,
    "country": "MZ"
  },
  {
    "name": "Neuquén",
    "asciiName": "Neuquen",
    "lat": -38.9508,
    "lng": -68.0592,
    "population": 231198,
    "country": "AR"
  },
  {
    "name": "José C. Paz",
    "asciiName": "Jose C. Paz",
    "lat": -34.5154,
    "lng": -58.7681,
    "population": 230208,
    "country": "AR"
  },
  {
    "name": "Paris 15 Vaugirard",
    "asciiName": "Paris 15 Vaugirard",
    "lat": 48.8412,
    "lng": 2.3003,
    "population": 229713,
    "country": "FR"
  },
  {
    "name": "Windsor",
    "asciiName": "Windsor",
    "lat": 42.3001,
    "lng": -83.0165,
    "population": 229660,
    "country": "CA"
  },
  {
    "name": "Longueuil",
    "asciiName": "Longueuil",
    "lat": 45.5152,
    "lng": -73.4682,
    "population": 229330,
    "country": "CA"
  },
  {
    "name": "Ciudad Lineal",
    "asciiName": "Ciudad Lineal",
    "lat": 40.4451,
    "lng": -3.6513,
    "population": 228171,
    "country": "ES"
  },
  {
    "name": "Bexley",
    "asciiName": "Bexley",
    "lat": 51.4416,
    "lng": 0.1487,
    "population": 228000,
    "country": "GB"
  },
  {
    "name": "San Lorenzo",
    "asciiName": "San Lorenzo",
    "lat": -25.3397,
    "lng": -57.5088,
    "population": 227876,
    "country": "PY"
  },
  {
    "name": "Rennes",
    "asciiName": "Rennes",
    "lat": 48.1111,
    "lng": -1.6743,
    "population": 227830,
    "country": "FR"
  },
  {
    "name": "Neue Neustadt",
    "asciiName": "Neue Neustadt",
    "lat": 52.15,
    "lng": 11.6333,
    "population": 226851,
    "country": "DE"
  },
  {
    "name": "Regina",
    "asciiName": "Regina",
    "lat": 50.4501,
    "lng": -104.6178,
    "population": 226404,
    "country": "CA"
  },
  {
    "name": "Luton",
    "asciiName": "Luton",
    "lat": 51.8797,
    "lng": -0.4175,
    "population": 225262,
    "country": "GB"
  },
  {
    "name": "Cork",
    "asciiName": "Cork",
    "lat": 51.898,
    "lng": -8.4706,
    "population": 224004,
    "country": "IE"
  },
  {
    "name": "Concepción",
    "asciiName": "Concepcion",
    "lat": -36.827,
    "lng": -73.0498,
    "population": 223574,
    "country": "CL"
  },
  {
    "name": "Mainz",
    "asciiName": "Mainz",
    "lat": 49.9819,
    "lng": 8.2801,
    "population": 222889,
    "country": "DE"
  },
  {
    "name": "Formosa",
    "asciiName": "Formosa",
    "lat": -26.1849,
    "lng": -58.1731,
    "population": 222226,
    "country": "AR"
  },
  {
    "name": "Tilburg",
    "asciiName": "Tilburg",
    "lat": 51.5555,
    "lng": 5.0913,
    "population": 221947,
    "country": "NL"
  },
  {
    "name": "Tuluá",
    "asciiName": "Tulua",
    "lat": 4.0847,
    "lng": -76.1954,
    "population": 221684,
    "country": "CO"
  },
  {
    "name": "Soyo",
    "asciiName": "Soyo",
    "lat": -6.1349,
    "lng": 12.3689,
    "population": 221555,
    "country": "AO"
  },
  {
    "name": "Fuencarral-El Pardo",
    "asciiName": "Fuencarral-El Pardo",
    "lat": 40.4984,
    "lng": -3.7314,
    "population": 220085,
    "country": "ES"
  },
  {
    "name": "Oviedo",
    "asciiName": "Oviedo",
    "lat": 43.3603,
    "lng": -5.8448,
    "population": 220027,
    "country": "ES"
  },
  {
    "name": "Messina",
    "asciiName": "Messina",
    "lat": 38.1939,
    "lng": 15.5526,
    "population": 219948,
    "country": "IT"
  },
  {
    "name": "Oberhausen",
    "asciiName": "Oberhausen",
    "lat": 51.4781,
    "lng": 6.8625,
    "population": 219176,
    "country": "DE"
  },
  {
    "name": "Erfurt",
    "asciiName": "Erfurt",
    "lat": 50.9773,
    "lng": 11.0354,
    "population": 218793,
    "country": "DE"
  },
  {
    "name": "Terrassa",
    "asciiName": "Terrassa",
    "lat": 41.5667,
    "lng": 2.0167,
    "population": 218535,
    "country": "ES"
  },
  {
    "name": "Barking",
    "asciiName": "Barking",
    "lat": 51.5333,
    "lng": 0.0833,
    "population": 218534,
    "country": "GB"
  },
  {
    "name": "Badalona",
    "asciiName": "Badalona",
    "lat": 41.45,
    "lng": 2.2474,
    "population": 217741,
    "country": "ES"
  },
  {
    "name": "Archway",
    "asciiName": "Archway",
    "lat": 51.5673,
    "lng": -0.1341,
    "population": 215667,
    "country": "GB"
  },
  {
    "name": "Cartagena",
    "asciiName": "Cartagena",
    "lat": 37.602,
    "lng": -0.984,
    "population": 213943,
    "country": "ES"
  },
  {
    "name": "Oakville",
    "asciiName": "Oakville",
    "lat": 43.4501,
    "lng": -79.6829,
    "population": 213759,
    "country": "CA"
  },
  {
    "name": "Jerez de la Frontera",
    "asciiName": "Jerez de la Frontera",
    "lat": 36.6865,
    "lng": -6.1361,
    "population": 212879,
    "country": "ES"
  },
  {
    "name": "Rancagua",
    "asciiName": "Rancagua",
    "lat": -34.1691,
    "lng": -70.7405,
    "population": 212695,
    "country": "CL"
  },
  {
    "name": "Lübeck",
    "asciiName": "Luebeck",
    "lat": 53.8689,
    "lng": 10.6873,
    "population": 212207,
    "country": "DE"
  },
  {
    "name": "Sabadell",
    "asciiName": "Sabadell",
    "lat": 41.5433,
    "lng": 2.1094,
    "population": 211734,
    "country": "ES"
  },
  {
    "name": "Santa Cruz de Tenerife",
    "asciiName": "Santa Cruz de Tenerife",
    "lat": 28.4682,
    "lng": -16.2546,
    "population": 211359,
    "country": "ES"
  },
  {
    "name": "Quilicura",
    "asciiName": "Quilicura",
    "lat": -33.368,
    "lng": -70.7139,
    "population": 210410,
    "country": "CL"
  },
  {
    "name": "Richmond",
    "asciiName": "Richmond",
    "lat": 49.17,
    "lng": -123.1368,
    "population": 209937,
    "country": "CA"
  },
  {
    "name": "Pamplona",
    "asciiName": "Pamplona",
    "lat": 42.8169,
    "lng": -1.6432,
    "population": 208243,
    "country": "ES"
  },
  {
    "name": "Portsmouth",
    "asciiName": "Portsmouth",
    "lat": 50.799,
    "lng": -1.0912,
    "population": 208100,
    "country": "GB"
  },
  {
    "name": "Móstoles",
    "asciiName": "Mostoles",
    "lat": 40.3223,
    "lng": -3.865,
    "population": 207095,
    "country": "ES"
  },
  {
    "name": "Dosquebradas",
    "asciiName": "Dosquebradas",
    "lat": 4.8392,
    "lng": -75.6673,
    "population": 206693,
    "country": "CO"
  },
  {
    "name": "Sumbe",
    "asciiName": "Sumbe",
    "lat": -11.206,
    "lng": 13.8437,
    "population": 205832,
    "country": "AO"
  },
  {
    "name": "Trieste",
    "asciiName": "Trieste",
    "lat": 45.6495,
    "lng": 13.7768,
    "population": 204338,
    "country": "IT"
  },
  {
    "name": "Padua",
    "asciiName": "Padua",
    "lat": 45.408,
    "lng": 11.8859,
    "population": 203725,
    "country": "IT"
  },
  {
    "name": "Richmond Hill",
    "asciiName": "Richmond Hill",
    "lat": 43.8711,
    "lng": -79.4373,
    "population": 202022,
    "country": "CA"
  },
  {
    "name": "Geneva",
    "asciiName": "Geneva",
    "lat": 46.2022,
    "lng": 6.1457,
    "population": 201741,
    "country": "CH"
  },
  {
    "name": "Swindon",
    "asciiName": "Swindon",
    "lat": 51.558,
    "lng": -1.7812,
    "population": 201669,
    "country": "GB"
  },
  {
    "name": "Cajamarca",
    "asciiName": "Cajamarca",
    "lat": -7.1638,
    "lng": -78.5003,
    "population": 201329,
    "country": "PE"
  },
  {
    "name": "Townsville",
    "asciiName": "Townsville",
    "lat": -19.2664,
    "lng": 146.8057,
    "population": 201313,
    "country": "AU"
  },
  {
    "name": "La Pintana",
    "asciiName": "La Pintana",
    "lat": -33.5833,
    "lng": -70.6342,
    "population": 201178,
    "country": "CL"
  },
  {
    "name": "Brescia",
    "asciiName": "Brescia",
    "lat": 45.5356,
    "lng": 10.2147,
    "population": 200423,
    "country": "IT"
  },
  {
    "name": "Iquique",
    "asciiName": "Iquique",
    "lat": -20.2133,
    "lng": -70.1503,
    "population": 199587,
    "country": "CL"
  },
  {
    "name": "Dudley",
    "asciiName": "Dudley",
    "lat": 52.5,
    "lng": -2.0833,
    "population": 199059,
    "country": "GB"
  },
  {
    "name": "Hagen",
    "asciiName": "Hagen",
    "lat": 51.3608,
    "lng": 7.4717,
    "population": 198972,
    "country": "DE"
  },
  {
    "name": "Aberdeen",
    "asciiName": "Aberdeen",
    "lat": 57.1437,
    "lng": -2.0981,
    "population": 198590,
    "country": "GB"
  },
  {
    "name": "Taranto",
    "asciiName": "Taranto",
    "lat": 40.4644,
    "lng": 17.2471,
    "population": 198585,
    "country": "IT"
  },
  {
    "name": "Capiatá",
    "asciiName": "Capiata",
    "lat": -25.3552,
    "lng": -57.4454,
    "population": 198553,
    "country": "PY"
  },
  {
    "name": "Zango",
    "asciiName": "Zango",
    "lat": -9.0121,
    "lng": 13.3844,
    "population": 198538,
    "country": "AO"
  },
  {
    "name": "Rostock",
    "asciiName": "Rostock",
    "lat": 54.0887,
    "lng": 12.1405,
    "population": 198293,
    "country": "DE"
  },